[
    {
        "Postal_Code": 8660,
        "Name": "De Panne",
        "Lon": 2.5905441,
        "Lat": 51.096303,
        "Language": "NL"
    },
    {
        "Postal_Code": 8630,
        "Name": "De Moeren",
        "Lon": 2.600584,
        "Lat": 51.041709,
        "Language": "NL"
    },
    {
        "Postal_Code": 8660,
        "Name": "Adinkerke",
        "Lon": 2.6034114,
        "Lat": 51.0751267,
        "Language": "NL"
    },
    {
        "Postal_Code": 8630,
        "Name": "Houtem (W.-Vl.)",
        "Lon": 2.6096642,
        "Lat": 51.0104746,
        "Language": "NL"
    },
    {
        "Postal_Code": 8978,
        "Name": "Watou",
        "Lon": 2.6206457,
        "Lat": 50.8588172,
        "Language": "NL"
    },
    {
        "Postal_Code": 8691,
        "Name": "Leisele",
        "Lon": 2.6234329,
        "Lat": 50.9855486,
        "Language": "NL"
    },
    {
        "Postal_Code": 8972,
        "Name": "Roesbrugge-Haringe",
        "Lon": 2.6247955,
        "Lat": 50.918879,
        "Language": "NL"
    },
    {
        "Postal_Code": 8630,
        "Name": "Bulskamp",
        "Lon": 2.6500228,
        "Lat": 51.0413505,
        "Language": "NL"
    },
    {
        "Postal_Code": 8670,
        "Name": "Koksijde",
        "Lon": 2.6500795,
        "Lat": 51.1053908,
        "Language": "NL"
    },
    {
        "Postal_Code": 8630,
        "Name": "Beauvoorde",
        "Lon": 2.65314,
        "Lat": 51.01456,
        "Language": "NL"
    },
    {
        "Postal_Code": 8630,
        "Name": "Wulveringem",
        "Lon": 2.6544608,
        "Lat": 51.014517,
        "Language": "NL"
    },
    {
        "Postal_Code": 8691,
        "Name": "Izenberge",
        "Lon": 2.6547262,
        "Lat": 50.9942337,
        "Language": "NL"
    },
    {
        "Postal_Code": 8972,
        "Name": "Proven",
        "Lon": 2.6560368,
        "Lat": 50.8904872,
        "Language": "NL"
    },
    {
        "Postal_Code": 8630,
        "Name": "Vinkem",
        "Lon": 2.6628519,
        "Lat": 51.0161527,
        "Language": "NL"
    },
    {
        "Postal_Code": 8630,
        "Name": "Veurne",
        "Lon": 2.6680059,
        "Lat": 51.0731945,
        "Language": "NL"
    },
    {
        "Postal_Code": 8691,
        "Name": "Stavele",
        "Lon": 2.6699315,
        "Lat": 50.938552,
        "Language": "NL"
    },
    {
        "Postal_Code": 8691,
        "Name": "Gijverinkhove",
        "Lon": 2.6725749,
        "Lat": 50.9761349,
        "Language": "NL"
    },
    {
        "Postal_Code": 8670,
        "Name": "Oostduinkerke",
        "Lon": 2.6824907,
        "Lat": 51.1158173,
        "Language": "NL"
    },
    {
        "Postal_Code": 8690,
        "Name": "Sint-Rijkers",
        "Lon": 2.687814,
        "Lat": 50.9915951,
        "Language": "NL"
    },
    {
        "Postal_Code": 8972,
        "Name": "Krombeke",
        "Lon": 2.6885943,
        "Lat": 50.9148551,
        "Language": "NL"
    },
    {
        "Postal_Code": 8630,
        "Name": "Steenkerke (W.-Vl.)",
        "Lon": 2.6892647,
        "Lat": 51.0574271,
        "Language": "NL"
    },
    {
        "Postal_Code": 8690,
        "Name": "Hoogstade",
        "Lon": 2.6916569,
        "Lat": 50.9795594,
        "Language": "NL"
    },
    {
        "Postal_Code": 8670,
        "Name": "Wulpen",
        "Lon": 2.6991737,
        "Lat": 51.1007563,
        "Language": "NL"
    },
    {
        "Postal_Code": 8690,
        "Name": "Oeren",
        "Lon": 2.7052385,
        "Lat": 51.0230442,
        "Language": "NL"
    },
    {
        "Postal_Code": 8690,
        "Name": "Alveringem",
        "Lon": 2.7130822,
        "Lat": 51.0122085,
        "Language": "NL"
    },
    {
        "Postal_Code": 8640,
        "Name": "Westvleteren",
        "Lon": 2.716907,
        "Lat": 50.9276053,
        "Language": "NL"
    },
    {
        "Postal_Code": 8970,
        "Name": "Poperinge",
        "Lon": 2.7211761,
        "Lat": 50.8452065,
        "Language": "NL"
    },
    {
        "Postal_Code": 8630,
        "Name": "Eggewaartskapelle",
        "Lon": 2.7218286,
        "Lat": 51.0496759,
        "Language": "NL"
    },
    {
        "Postal_Code": 8691,
        "Name": "Beveren-aan-den-Ijzer",
        "Lon": 2.7301883,
        "Lat": 51.0301989,
        "Language": "NL"
    },
    {
        "Postal_Code": 8647,
        "Name": "Pollinkhove",
        "Lon": 2.7322734,
        "Lat": 50.9710805,
        "Language": "NL"
    },
    {
        "Postal_Code": 8640,
        "Name": "Vleteren",
        "Lon": 2.7327547,
        "Lat": 50.9296908,
        "Language": "NL"
    },
    {
        "Postal_Code": 8630,
        "Name": "Avekapelle",
        "Lon": 2.7329511,
        "Lat": 51.0663475,
        "Language": "NL"
    },
    {
        "Postal_Code": 8630,
        "Name": "Booitshoeke",
        "Lon": 2.7332623,
        "Lat": 51.0869455,
        "Language": "NL"
    },
    {
        "Postal_Code": 8640,
        "Name": "Oostvleteren",
        "Lon": 2.7367963,
        "Lat": 50.9318028,
        "Language": "NL"
    },
    {
        "Postal_Code": 8954,
        "Name": "Westouter",
        "Lon": 2.7464372,
        "Lat": 50.7971484,
        "Language": "NL"
    },
    {
        "Postal_Code": 8620,
        "Name": "Nieuwpoort",
        "Lon": 2.7480064,
        "Lat": 51.1285059,
        "Language": "NL"
    },
    {
        "Postal_Code": 8647,
        "Name": "Lo",
        "Lon": 2.7489727,
        "Lat": 50.9806703,
        "Language": "NL"
    },
    {
        "Postal_Code": 8630,
        "Name": "Zoutenaaie",
        "Lon": 2.75075,
        "Lat": 51.0485937,
        "Language": "NL"
    },
    {
        "Postal_Code": 8434,
        "Name": "Lombardsijde",
        "Lon": 2.7565537,
        "Lat": 51.1478198,
        "Language": "NL"
    },
    {
        "Postal_Code": 8620,
        "Name": "Ramskapelle (Nieuwpoort)",
        "Lon": 2.7620106,
        "Lat": 51.1095483,
        "Language": "NL"
    },
    {
        "Postal_Code": 8970,
        "Name": "Reningelst",
        "Lon": 2.7634047,
        "Lat": 50.8170545,
        "Language": "NL"
    },
    {
        "Postal_Code": 8600,
        "Name": "Lampernisse",
        "Lon": 2.7685298,
        "Lat": 51.0325467,
        "Language": "NL"
    },
    {
        "Postal_Code": 8434,
        "Name": "Westende",
        "Lon": 2.7695246,
        "Lat": 51.1519765,
        "Language": "NL"
    },
    {
        "Postal_Code": 8647,
        "Name": "Reninge",
        "Lon": 2.77157,
        "Lat": 50.97334,
        "Language": "NL"
    },
    {
        "Postal_Code": 8647,
        "Name": "Lo-Reninge",
        "Lon": 2.77157,
        "Lat": 50.97334,
        "Language": "FR"
    },
    {
        "Postal_Code": 8958,
        "Name": "Loker",
        "Lon": 2.7721461,
        "Lat": 50.7817391,
        "Language": "NL"
    },
    {
        "Postal_Code": 8620,
        "Name": "Sint-Joris (Nieuwpoort)",
        "Lon": 2.7723581,
        "Lat": 51.1291298,
        "Language": "NL"
    },
    {
        "Postal_Code": 8951,
        "Name": "Dranouter",
        "Lon": 2.7829724,
        "Lat": 50.7659194,
        "Language": "NL"
    },
    {
        "Postal_Code": 8640,
        "Name": "Woesten",
        "Lon": 2.7891271,
        "Lat": 50.9006632,
        "Language": "NL"
    },
    {
        "Postal_Code": 8600,
        "Name": "Pervijze",
        "Lon": 2.7941219,
        "Lat": 51.0733467,
        "Language": "NL"
    },
    {
        "Postal_Code": 8600,
        "Name": "Oostkerke (Diksmuide)",
        "Lon": 2.7972622,
        "Lat": 51.0464297,
        "Language": "NL"
    },
    {
        "Postal_Code": 8600,
        "Name": "Nieuwkapelle",
        "Lon": 2.7999063,
        "Lat": 50.999433,
        "Language": "NL"
    },
    {
        "Postal_Code": 8430,
        "Name": "Middelkerke",
        "Lon": 2.8060231,
        "Lat": 51.1798869,
        "Language": "NL"
    },
    {
        "Postal_Code": 8600,
        "Name": "Oudekapelle",
        "Lon": 2.8080138,
        "Lat": 51.0135407,
        "Language": "NL"
    },
    {
        "Postal_Code": 8647,
        "Name": "Noordschote",
        "Lon": 2.810466,
        "Lat": 50.9546429,
        "Language": "NL"
    },
    {
        "Postal_Code": 8906,
        "Name": "Elverdinge",
        "Lon": 2.817508,
        "Lat": 50.8858801,
        "Language": "NL"
    },
    {
        "Postal_Code": 8433,
        "Name": "Mannekensvere",
        "Lon": 2.8181826,
        "Lat": 51.1259337,
        "Language": "NL"
    },
    {
        "Postal_Code": 8908,
        "Name": "Vlamertinge",
        "Lon": 2.8243473,
        "Lat": 50.8536639,
        "Language": "NL"
    },
    {
        "Postal_Code": 8600,
        "Name": "Stuivekenskerke",
        "Lon": 2.825052,
        "Lat": 51.0767668,
        "Language": "NL"
    },
    {
        "Postal_Code": 8950,
        "Name": "Heuvelland",
        "Lon": 2.8250977,
        "Lat": 50.733506,
        "Language": "NL"
    },
    {
        "Postal_Code": 8950,
        "Name": "Nieuwkerke",
        "Lon": 2.8252871,
        "Lat": 50.7460655,
        "Language": "NL"
    },
    {
        "Postal_Code": 8431,
        "Name": "Wilskerke",
        "Lon": 2.825943,
        "Lat": 51.1796383,
        "Language": "NL"
    },
    {
        "Postal_Code": 8956,
        "Name": "Kemmel",
        "Lon": 2.8286179,
        "Lat": 50.7832795,
        "Language": "NL"
    },
    {
        "Postal_Code": 8904,
        "Name": "Zuidschote",
        "Lon": 2.8295441,
        "Lat": 50.9130344,
        "Language": "NL"
    },
    {
        "Postal_Code": 8900,
        "Name": "Dikkebus",
        "Lon": 2.8318862,
        "Lat": 50.8205936,
        "Language": "NL"
    },
    {
        "Postal_Code": 8600,
        "Name": "Sint-Jacobs-Kapelle",
        "Lon": 2.8338522,
        "Lat": 51.0164049,
        "Language": "NL"
    },
    {
        "Postal_Code": 8600,
        "Name": "Kaaskerke",
        "Lon": 2.8364554,
        "Lat": 51.0357927,
        "Language": "NL"
    },
    {
        "Postal_Code": 8433,
        "Name": "Schore",
        "Lon": 2.8392235,
        "Lat": 51.1117368,
        "Language": "NL"
    },
    {
        "Postal_Code": 8433,
        "Name": "Spermalie",
        "Lon": 2.84643,
        "Lat": 51.12131,
        "Language": "NL"
    },
    {
        "Postal_Code": 8433,
        "Name": "Slijpe",
        "Lon": 2.8472073,
        "Lat": 51.1553124,
        "Language": "NL"
    },
    {
        "Postal_Code": 8900,
        "Name": "Brielen",
        "Lon": 2.8501053,
        "Lat": 50.867386,
        "Language": "NL"
    },
    {
        "Postal_Code": 8650,
        "Name": "Merkem",
        "Lon": 2.8523982,
        "Lat": 50.9528136,
        "Language": "NL"
    },
    {
        "Postal_Code": 8952,
        "Name": "Wulvergem",
        "Lon": 2.8524263,
        "Lat": 50.7601685,
        "Language": "NL"
    },
    {
        "Postal_Code": 8904,
        "Name": "Boezinge",
        "Lon": 2.8547932,
        "Lat": 50.8967457,
        "Language": "NL"
    },
    {
        "Postal_Code": 8600,
        "Name": "Diksmuide",
        "Lon": 2.8639865,
        "Lat": 51.0317064,
        "Language": "NL"
    },
    {
        "Postal_Code": 8920,
        "Name": "Bikschote",
        "Lon": 2.8646858,
        "Lat": 50.9258047,
        "Language": "NL"
    },
    {
        "Postal_Code": 8600,
        "Name": "Woumen",
        "Lon": 2.8697759,
        "Lat": 50.9983803,
        "Language": "NL"
    },
    {
        "Postal_Code": 7782,
        "Name": "Ploegsteert",
        "Lon": 2.8733669,
        "Lat": 50.7323288,
        "Language": "NL"
    },
    {
        "Postal_Code": 8902,
        "Name": "Voormezele",
        "Lon": 2.875805,
        "Lat": 50.8165607,
        "Language": "NL"
    },
    {
        "Postal_Code": 8432,
        "Name": "Leffinge",
        "Lon": 2.87711,
        "Lat": 51.17567,
        "Language": "NL"
    },
    {
        "Postal_Code": 8900,
        "Name": "Ieper",
        "Lon": 2.8779465,
        "Lat": 50.8492265,
        "Language": "NL"
    },
    {
        "Postal_Code": 8600,
        "Name": "Keiem",
        "Lon": 2.8821755,
        "Lat": 51.0807421,
        "Language": "NL"
    },
    {
        "Postal_Code": 8953,
        "Name": "Wijtschate",
        "Lon": 2.8831131,
        "Lat": 50.7858578,
        "Language": "NL"
    },
    {
        "Postal_Code": 8600,
        "Name": "Beerst",
        "Lon": 2.8868758,
        "Lat": 51.0589145,
        "Language": "NL"
    },
    {
        "Postal_Code": 8600,
        "Name": "Leke",
        "Lon": 2.8904342,
        "Lat": 51.1004367,
        "Language": "NL"
    },
    {
        "Postal_Code": 8957,
        "Name": "Mesen",
        "Lon": 2.896138,
        "Lat": 50.764271,
        "Language": "NL"
    },
    {
        "Postal_Code": 8957,
        "Name": "Messines",
        "Lon": 2.896138,
        "Lat": 50.764271,
        "Language": "FR"
    },
    {
        "Postal_Code": 7783,
        "Name": "Bizet",
        "Lon": 2.8975904,
        "Lat": 50.703152,
        "Language": "NL"
    },
    {
        "Postal_Code": 8400,
        "Name": "Oostende",
        "Lon": 2.9,
        "Lat": 51.2166667,
        "Language": "NL"
    },
    {
        "Postal_Code": 8900,
        "Name": "Sint-Jan",
        "Lon": 2.9021437,
        "Lat": 50.866914,
        "Language": "NL"
    },
    {
        "Postal_Code": 8600,
        "Name": "Esen",
        "Lon": 2.9021449,
        "Lat": 51.0294434,
        "Language": "NL"
    },
    {
        "Postal_Code": 8650,
        "Name": "Klerken",
        "Lon": 2.9041727,
        "Lat": 50.9980304,
        "Language": "NL"
    },
    {
        "Postal_Code": 8400,
        "Name": "Stene",
        "Lon": 2.9089685,
        "Lat": 51.2244157,
        "Language": "NL"
    },
    {
        "Postal_Code": 8600,
        "Name": "Vladslo",
        "Lon": 2.916271,
        "Lat": 51.0464012,
        "Language": "NL"
    },
    {
        "Postal_Code": 8920,
        "Name": "Langemark-Poelkapelle",
        "Lon": 2.9180556,
        "Lat": 50.9133333,
        "Language": "NL"
    },
    {
        "Postal_Code": 8920,
        "Name": "Langemark",
        "Lon": 2.920005,
        "Lat": 50.9135965,
        "Language": "NL"
    },
    {
        "Postal_Code": 8470,
        "Name": "Zevekote",
        "Lon": 2.9200416,
        "Lat": 51.1375112,
        "Language": "NL"
    },
    {
        "Postal_Code": 8680,
        "Name": "Zande",
        "Lon": 2.9222322,
        "Lat": 51.1200517,
        "Language": "NL"
    },
    {
        "Postal_Code": 8902,
        "Name": "Zillebeke",
        "Lon": 2.9225399,
        "Lat": 50.8345035,
        "Language": "NL"
    },
    {
        "Postal_Code": 8902,
        "Name": "Hollebeke",
        "Lon": 2.9371958,
        "Lat": 50.8053761,
        "Language": "NL"
    },
    {
        "Postal_Code": 8470,
        "Name": "Snaaskerke",
        "Lon": 2.939082,
        "Lat": 51.1775854,
        "Language": "NL"
    },
    {
        "Postal_Code": 8650,
        "Name": "Houthulst",
        "Lon": 2.9457764,
        "Lat": 50.9773885,
        "Language": "NL"
    },
    {
        "Postal_Code": 7784,
        "Name": "Waasten",
        "Lon": 2.9488295,
        "Lat": 50.7527699,
        "Language": "NL"
    },
    {
        "Postal_Code": 7784,
        "Name": "Warneton",
        "Lon": 2.9488295,
        "Lat": 50.7527699,
        "Language": "FR"
    },
    {
        "Postal_Code": 8470,
        "Name": "Moere",
        "Lon": 2.9559016,
        "Lat": 51.1225897,
        "Language": "NL"
    },
    {
        "Postal_Code": 8920,
        "Name": "Poelkapelle",
        "Lon": 2.9565978,
        "Lat": 50.9176532,
        "Language": "NL"
    },
    {
        "Postal_Code": 8610,
        "Name": "Zarren",
        "Lon": 2.9589059,
        "Lat": 51.0184331,
        "Language": "NL"
    },
    {
        "Postal_Code": 7784,
        "Name": "Bas-Warneton",
        "Lon": 2.9610169,
        "Lat": 50.7591263,
        "Language": "FR"
    },
    {
        "Postal_Code": 7784,
        "Name": "Neerwaasten",
        "Lon": 2.9610169,
        "Lat": 50.7591263,
        "Language": "NL"
    },
    {
        "Postal_Code": 8680,
        "Name": "Bovekerke",
        "Lon": 2.9627034,
        "Lat": 51.0544659,
        "Language": "NL"
    },
    {
        "Postal_Code": 7781,
        "Name": "Houthem (Comines)",
        "Lon": 2.9641654,
        "Lat": 50.7867816,
        "Language": "NL"
    },
    {
        "Postal_Code": 8610,
        "Name": "Werken",
        "Lon": 2.9646703,
        "Lat": 51.0291439,
        "Language": "NL"
    },
    {
        "Postal_Code": 8470,
        "Name": "Gistel",
        "Lon": 2.9676432,
        "Lat": 51.1562662,
        "Language": "NL"
    },
    {
        "Postal_Code": 8450,
        "Name": "Bredene",
        "Lon": 2.9728091,
        "Lat": 51.2345888,
        "Language": "NL"
    },
    {
        "Postal_Code": 8400,
        "Name": "Zandvoorde (Oostende)",
        "Lon": 2.9750305,
        "Lat": 51.2012273,
        "Language": "NL"
    },
    {
        "Postal_Code": 8680,
        "Name": "Koekelare",
        "Lon": 2.977801,
        "Lat": 51.089265,
        "Language": "NL"
    },
    {
        "Postal_Code": 8980,
        "Name": "Zandvoorde (Zonnebeke)",
        "Lon": 2.9816989,
        "Lat": 50.8123365,
        "Language": "NL"
    },
    {
        "Postal_Code": 8980,
        "Name": "Zonnebeke",
        "Lon": 2.9874714,
        "Lat": 50.8727334,
        "Language": "NL"
    },
    {
        "Postal_Code": 8980,
        "Name": "Geluveld",
        "Lon": 2.9939124,
        "Lat": 50.8338478,
        "Language": "NL"
    },
    {
        "Postal_Code": 7780,
        "Name": "Comines",
        "Lon": 2.9997061,
        "Lat": 50.7687459,
        "Language": "FR"
    },
    {
        "Postal_Code": 7780,
        "Name": "Komen",
        "Lon": 2.9997061,
        "Lat": 50.7687459,
        "Language": "NL"
    },
    {
        "Postal_Code": 7780,
        "Name": "Comines-Warneton",
        "Lon": 2.9997573,
        "Lat": 50.7811468,
        "Language": "FR"
    },
    {
        "Postal_Code": 7780,
        "Name": "Komen-Waasten",
        "Lon": 2.9997573,
        "Lat": 50.7811468,
        "Language": "NL"
    },
    {
        "Postal_Code": 8610,
        "Name": "Handzame",
        "Lon": 3.0031283,
        "Lat": 51.025671,
        "Language": "NL"
    },
    {
        "Postal_Code": 8460,
        "Name": "Oudenburg",
        "Lon": 3.0068564,
        "Lat": 51.1836837,
        "Language": "NL"
    },
    {
        "Postal_Code": 8480,
        "Name": "Ichtegem",
        "Lon": 3.0106022,
        "Lat": 51.0928542,
        "Language": "NL"
    },
    {
        "Postal_Code": 8840,
        "Name": "Westrozebeke",
        "Lon": 3.012283,
        "Lat": 50.931897,
        "Language": "NL"
    },
    {
        "Postal_Code": 8840,
        "Name": "Staden",
        "Lon": 3.014488,
        "Lat": 50.9745786,
        "Language": "NL"
    },
    {
        "Postal_Code": 8460,
        "Name": "Westkerke",
        "Lon": 3.0154519,
        "Lat": 51.1644881,
        "Language": "NL"
    },
    {
        "Postal_Code": 8980,
        "Name": "Passendale",
        "Lon": 3.0207328,
        "Lat": 50.9002575,
        "Language": "NL"
    },
    {
        "Postal_Code": 8420,
        "Name": "Klemskerke",
        "Lon": 3.0229766,
        "Lat": 51.2433832,
        "Language": "NL"
    },
    {
        "Postal_Code": 8980,
        "Name": "Beselare",
        "Lon": 3.024675,
        "Lat": 50.84788,
        "Language": "NL"
    },
    {
        "Postal_Code": 8480,
        "Name": "Eernegem",
        "Lon": 3.0274116,
        "Lat": 51.129505,
        "Language": "NL"
    },
    {
        "Postal_Code": 8460,
        "Name": "Roksem",
        "Lon": 3.0276368,
        "Lat": 51.1674713,
        "Language": "NL"
    },
    {
        "Postal_Code": 8460,
        "Name": "Ettelgem",
        "Lon": 3.0302382,
        "Lat": 51.1795852,
        "Language": "NL"
    },
    {
        "Postal_Code": 8420,
        "Name": "De Haan",
        "Lon": 3.040091,
        "Lat": 51.271947,
        "Language": "NL"
    },
    {
        "Postal_Code": 8940,
        "Name": "Wervik",
        "Lon": 3.0441692,
        "Lat": 50.7838218,
        "Language": "NL"
    },
    {
        "Postal_Code": 8610,
        "Name": "Kortemark",
        "Lon": 3.0444444,
        "Lat": 51.0286111,
        "Language": "NL"
    },
    {
        "Postal_Code": 8480,
        "Name": "Bekegem",
        "Lon": 3.0453899,
        "Lat": 51.1597289,
        "Language": "NL"
    },
    {
        "Postal_Code": 8890,
        "Name": "Moorslede",
        "Lon": 3.0632369,
        "Lat": 50.891147,
        "Language": "NL"
    },
    {
        "Postal_Code": 8421,
        "Name": "Vlissegem",
        "Lon": 3.0638644,
        "Lat": 51.2598471,
        "Language": "NL"
    },
    {
        "Postal_Code": 8840,
        "Name": "Oostnieuwkerke",
        "Lon": 3.0642828,
        "Lat": 50.9423778,
        "Language": "NL"
    },
    {
        "Postal_Code": 8490,
        "Name": "Zerkegem",
        "Lon": 3.0693013,
        "Lat": 51.1665002,
        "Language": "NL"
    },
    {
        "Postal_Code": 8490,
        "Name": "Stalhille",
        "Lon": 3.0721578,
        "Lat": 51.2140395,
        "Language": "NL"
    },
    {
        "Postal_Code": 8940,
        "Name": "Geluwe",
        "Lon": 3.0767048,
        "Lat": 50.8099859,
        "Language": "NL"
    },
    {
        "Postal_Code": 8830,
        "Name": "Hooglede",
        "Lon": 3.0814646,
        "Lat": 50.9785141,
        "Language": "NL"
    },
    {
        "Postal_Code": 8420,
        "Name": "Wenduine",
        "Lon": 3.0830791,
        "Lat": 51.2976457,
        "Language": "NL"
    },
    {
        "Postal_Code": 8211,
        "Name": "Aartrijke",
        "Lon": 3.0900794,
        "Lat": 51.1191688,
        "Language": "NL"
    },
    {
        "Postal_Code": 8890,
        "Name": "Dadizele",
        "Lon": 3.0944555,
        "Lat": 50.8516407,
        "Language": "NL"
    },
    {
        "Postal_Code": 8490,
        "Name": "Jabbeke",
        "Lon": 3.0948244,
        "Lat": 51.1829867,
        "Language": "NL"
    },
    {
        "Postal_Code": 8820,
        "Name": "Torhout",
        "Lon": 3.098174,
        "Lat": 51.064451,
        "Language": "NL"
    },
    {
        "Postal_Code": 8377,
        "Name": "Nieuwmunster",
        "Lon": 3.0986683,
        "Lat": 51.273778,
        "Language": "NL"
    },
    {
        "Postal_Code": 8830,
        "Name": "Gits",
        "Lon": 3.0999918,
        "Lat": 50.9970116,
        "Language": "NL"
    },
    {
        "Postal_Code": 8377,
        "Name": "Houtave",
        "Lon": 3.1104678,
        "Lat": 51.2359799,
        "Language": "NL"
    },
    {
        "Postal_Code": 8930,
        "Name": "Menen",
        "Lon": 3.1214422,
        "Lat": 50.7961693,
        "Language": "NL"
    },
    {
        "Postal_Code": 8490,
        "Name": "Snellegem",
        "Lon": 3.1230877,
        "Lat": 51.1690484,
        "Language": "NL"
    },
    {
        "Postal_Code": 8880,
        "Name": "Ledegem",
        "Lon": 3.1274479,
        "Lat": 50.8549686,
        "Language": "NL"
    },
    {
        "Postal_Code": 8800,
        "Name": "Roeselare",
        "Lon": 3.129445,
        "Lat": 50.949931,
        "Language": "NL"
    },
    {
        "Postal_Code": 8370,
        "Name": "Blankenberge",
        "Lon": 3.1327685,
        "Lat": 51.3123743,
        "Language": "NL"
    },
    {
        "Postal_Code": 8210,
        "Name": "Zedelgem",
        "Lon": 3.1369128,
        "Lat": 51.1423355,
        "Language": "NL"
    },
    {
        "Postal_Code": 8490,
        "Name": "Varsenare",
        "Lon": 3.1421014,
        "Lat": 51.1891579,
        "Language": "NL"
    },
    {
        "Postal_Code": 8370,
        "Name": "Uitkerke",
        "Lon": 3.1429,
        "Lat": 51.3033,
        "Language": "NL"
    },
    {
        "Postal_Code": 8810,
        "Name": "Lichtervelde",
        "Lon": 3.1439095,
        "Lat": 51.0277074,
        "Language": "NL"
    },
    {
        "Postal_Code": 8800,
        "Name": "Beveren (Roeselare)",
        "Lon": 3.1443098,
        "Lat": 50.9685498,
        "Language": "NL"
    },
    {
        "Postal_Code": 8880,
        "Name": "Rollegem-Kapelle",
        "Lon": 3.1449509,
        "Lat": 50.8682853,
        "Language": "NL"
    },
    {
        "Postal_Code": 8377,
        "Name": "Meetkerke",
        "Lon": 3.1514099,
        "Lat": 51.2350824,
        "Language": "NL"
    },
    {
        "Postal_Code": 8800,
        "Name": "Rumbeke",
        "Lon": 3.1560374,
        "Lat": 50.9332448,
        "Language": "NL"
    },
    {
        "Postal_Code": 8377,
        "Name": "Zuienkerke",
        "Lon": 3.1563889,
        "Lat": 51.265,
        "Language": "NL"
    },
    {
        "Postal_Code": 8210,
        "Name": "Veldegem",
        "Lon": 3.1595129,
        "Lat": 51.1045154,
        "Language": "NL"
    },
    {
        "Postal_Code": 8800,
        "Name": "Oekene",
        "Lon": 3.1609844,
        "Lat": 50.9202542,
        "Language": "NL"
    },
    {
        "Postal_Code": 8930,
        "Name": "Rekkem",
        "Lon": 3.1641132,
        "Lat": 50.782807,
        "Language": "NL"
    },
    {
        "Postal_Code": 8560,
        "Name": "Moorsele",
        "Lon": 3.1646335,
        "Lat": 50.8405959,
        "Language": "NL"
    },
    {
        "Postal_Code": 8200,
        "Name": "Sint-Andries",
        "Lon": 3.1794755,
        "Lat": 51.1972024,
        "Language": "NL"
    },
    {
        "Postal_Code": 8880,
        "Name": "Sint-Eloois-Winkel",
        "Lon": 3.1823566,
        "Lat": 50.8762769,
        "Language": "NL"
    },
    {
        "Postal_Code": 8560,
        "Name": "Wevelgem",
        "Lon": 3.1833333,
        "Lat": 50.8166667,
        "Language": "NL"
    },
    {
        "Postal_Code": 8930,
        "Name": "Lauwe",
        "Lon": 3.1849946,
        "Lat": 50.7946478,
        "Language": "NL"
    },
    {
        "Postal_Code": 8380,
        "Name": "Lissewege",
        "Lon": 3.1923223,
        "Lat": 51.2941105,
        "Language": "NL"
    },
    {
        "Postal_Code": 8870,
        "Name": "Kachtem",
        "Lon": 3.1924033,
        "Lat": 50.9318824,
        "Language": "NL"
    },
    {
        "Postal_Code": 8210,
        "Name": "Loppem",
        "Lon": 3.1959225,
        "Lat": 51.1559088,
        "Language": "NL"
    },
    {
        "Postal_Code": 8850,
        "Name": "Ardooie",
        "Lon": 3.1988027,
        "Lat": 50.979065,
        "Language": "NL"
    },
    {
        "Postal_Code": 8560,
        "Name": "Gullegem",
        "Lon": 3.1989718,
        "Lat": 50.8447689,
        "Language": "NL"
    },
    {
        "Postal_Code": 8380,
        "Name": "Zeebrugge (Brugge)",
        "Lon": 3.20137,
        "Lat": 51.330074,
        "Language": "NL"
    },
    {
        "Postal_Code": 8000,
        "Name": "Brugge",
        "Lon": 3.2028416,
        "Lat": 51.2299337,
        "Language": "NL"
    },
    {
        "Postal_Code": 8020,
        "Name": "Ruddervoorde",
        "Lon": 3.2065193,
        "Lat": 51.095941,
        "Language": "NL"
    },
    {
        "Postal_Code": 8200,
        "Name": "Sint-Michiels",
        "Lon": 3.2082098,
        "Lat": 51.1858939,
        "Language": "NL"
    },
    {
        "Postal_Code": 8750,
        "Name": "Zwevezele",
        "Lon": 3.21047,
        "Lat": 51.03609,
        "Language": "NL"
    },
    {
        "Postal_Code": 8851,
        "Name": "Koolskamp",
        "Lon": 3.2117867,
        "Lat": 51.0019392,
        "Language": "NL"
    },
    {
        "Postal_Code": 8870,
        "Name": "Izegem",
        "Lon": 3.214185,
        "Lat": 50.92019,
        "Language": "NL"
    },
    {
        "Postal_Code": 8791,
        "Name": "Beveren (Leie)",
        "Lon": 3.2158445,
        "Lat": 50.830709,
        "Language": "NL"
    },
    {
        "Postal_Code": 8870,
        "Name": "Emelgem",
        "Lon": 3.2178679,
        "Lat": 50.9271506,
        "Language": "NL"
    },
    {
        "Postal_Code": 7700,
        "Name": "Moeskroen",
        "Lon": 3.219272,
        "Lat": 50.7459126,
        "Language": "NL"
    },
    {
        "Postal_Code": 7700,
        "Name": "Mouscron",
        "Lon": 3.219272,
        "Lat": 50.7459126,
        "Language": "FR"
    },
    {
        "Postal_Code": 8020,
        "Name": "Waardamme",
        "Lon": 3.2193165,
        "Lat": 51.1133317,
        "Language": "NL"
    },
    {
        "Postal_Code": 8380,
        "Name": "Dudzele",
        "Lon": 3.2247366,
        "Lat": 51.2736603,
        "Language": "NL"
    },
    {
        "Postal_Code": 8501,
        "Name": "Bissegem",
        "Lon": 3.2280954,
        "Lat": 50.8241103,
        "Language": "NL"
    },
    {
        "Postal_Code": 8511,
        "Name": "Aalbeke",
        "Lon": 3.2299377,
        "Lat": 50.7784023,
        "Language": "NL"
    },
    {
        "Postal_Code": 7712,
        "Name": "Herseaux",
        "Lon": 3.2326156,
        "Lat": 50.722568,
        "Language": "NL"
    },
    {
        "Postal_Code": 8020,
        "Name": "Oostkamp",
        "Lon": 3.2332169,
        "Lat": 51.1545363,
        "Language": "NL"
    },
    {
        "Postal_Code": 8510,
        "Name": "Marke (Kortrijk)",
        "Lon": 3.2335928,
        "Lat": 50.8070105,
        "Language": "NL"
    },
    {
        "Postal_Code": 7700,
        "Name": "Luingne",
        "Lon": 3.2337149,
        "Lat": 50.738441,
        "Language": "NL"
    },
    {
        "Postal_Code": 8501,
        "Name": "Heule",
        "Lon": 3.23472,
        "Lat": 50.8431958,
        "Language": "NL"
    },
    {
        "Postal_Code": 8860,
        "Name": "Lendelede",
        "Lon": 3.2372222,
        "Lat": 50.8858333,
        "Language": "NL"
    },
    {
        "Postal_Code": 8301,
        "Name": "Heist-aan-Zee",
        "Lon": 3.2400417,
        "Lat": 51.3403638,
        "Language": "NL"
    },
    {
        "Postal_Code": 8000,
        "Name": "Koolkerke",
        "Lon": 3.248109,
        "Lat": 51.2403327,
        "Language": "NL"
    },
    {
        "Postal_Code": 8310,
        "Name": "Sint-Kruis (Brugge)",
        "Lon": 3.2512976,
        "Lat": 51.214297,
        "Language": "NL"
    },
    {
        "Postal_Code": 8301,
        "Name": "Ramskapelle (Knokke-Heist)",
        "Lon": 3.2516251,
        "Lat": 51.3136364,
        "Language": "NL"
    },
    {
        "Postal_Code": 8310,
        "Name": "Assebroek",
        "Lon": 3.2550607,
        "Lat": 51.2020234,
        "Language": "NL"
    },
    {
        "Postal_Code": 7730,
        "Name": "Estaimpuis",
        "Lon": 3.257082,
        "Lat": 50.711453,
        "Language": "NL"
    },
    {
        "Postal_Code": 8500,
        "Name": "Kortrijk",
        "Lon": 3.2577076,
        "Lat": 50.8194894,
        "Language": "NL"
    },
    {
        "Postal_Code": 8740,
        "Name": "Egem",
        "Lon": 3.2590301,
        "Lat": 51.0148444,
        "Language": "NL"
    },
    {
        "Postal_Code": 8770,
        "Name": "Ingelmunster",
        "Lon": 3.26284,
        "Lat": 50.92325,
        "Language": "NL"
    },
    {
        "Postal_Code": 8510,
        "Name": "Rollegem",
        "Lon": 3.2634359,
        "Lat": 50.7659873,
        "Language": "NL"
    },
    {
        "Postal_Code": 8740,
        "Name": "Pittem",
        "Lon": 3.2666639,
        "Lat": 50.9942681,
        "Language": "NL"
    },
    {
        "Postal_Code": 7730,
        "Name": "N?hin",
        "Lon": 3.2690718,
        "Lat": 50.6670101,
        "Language": "NL"
    },
    {
        "Postal_Code": 7730,
        "Name": "Leers-Nord",
        "Lon": 3.2718413,
        "Lat": 50.6876942,
        "Language": "NL"
    },
    {
        "Postal_Code": 8020,
        "Name": "Hertsberge",
        "Lon": 3.2730671,
        "Lat": 51.1053969,
        "Language": "NL"
    },
    {
        "Postal_Code": 8750,
        "Name": "Wingene",
        "Lon": 3.2748,
        "Lat": 51.05865,
        "Language": "NL"
    },
    {
        "Postal_Code": 8510,
        "Name": "Bellegem",
        "Lon": 3.2784441,
        "Lat": 50.776603,
        "Language": "NL"
    },
    {
        "Postal_Code": 7520,
        "Name": "Templeuve",
        "Lon": 3.283159,
        "Lat": 50.6448071,
        "Language": "NL"
    },
    {
        "Postal_Code": 7730,
        "Name": "Evregnies",
        "Lon": 3.2865695,
        "Lat": 50.7129496,
        "Language": "NL"
    },
    {
        "Postal_Code": 8760,
        "Name": "Meulebeke",
        "Lon": 3.2869444,
        "Lat": 50.9497222,
        "Language": "NL"
    },
    {
        "Postal_Code": 8520,
        "Name": "Kuurne",
        "Lon": 3.287,
        "Lat": 50.85397,
        "Language": "NL"
    },
    {
        "Postal_Code": 8340,
        "Name": "Damme",
        "Lon": 3.287712,
        "Lat": 51.250818,
        "Language": "NL"
    },
    {
        "Postal_Code": 8300,
        "Name": "Knokke",
        "Lon": 3.2893221,
        "Lat": 51.3467066,
        "Language": "NL"
    },
    {
        "Postal_Code": 8300,
        "Name": "Knokke-Heist",
        "Lon": 3.2893221,
        "Lat": 51.3467066,
        "Language": "NL"
    },
    {
        "Postal_Code": 7522,
        "Name": "Hertain",
        "Lon": 3.289636,
        "Lat": 50.6134736,
        "Language": "NL"
    },
    {
        "Postal_Code": 7522,
        "Name": "Lamain",
        "Lon": 3.2922108,
        "Lat": 50.6007064,
        "Language": "NL"
    },
    {
        "Postal_Code": 8340,
        "Name": "Oostkerke (Damme)",
        "Lon": 3.2938857,
        "Lat": 51.2785542,
        "Language": "NL"
    },
    {
        "Postal_Code": 8531,
        "Name": "Hulste",
        "Lon": 3.2982426,
        "Lat": 50.8804452,
        "Language": "NL"
    },
    {
        "Postal_Code": 7610,
        "Name": "Rumes",
        "Lon": 3.3022239,
        "Lat": 50.554887,
        "Language": "NL"
    },
    {
        "Postal_Code": 8300,
        "Name": "Westkapelle",
        "Lon": 3.3028853,
        "Lat": 51.3157028,
        "Language": "NL"
    },
    {
        "Postal_Code": 7522,
        "Name": "Blandain",
        "Lon": 3.3037827,
        "Lat": 50.6250532,
        "Language": "NL"
    },
    {
        "Postal_Code": 7502,
        "Name": "Esplechin",
        "Lon": 3.3039872,
        "Lat": 50.5736959,
        "Language": "NL"
    },
    {
        "Postal_Code": 7711,
        "Name": "Dottenijs",
        "Lon": 3.3048918,
        "Lat": 50.7281602,
        "Language": "NL"
    },
    {
        "Postal_Code": 7711,
        "Name": "Dottignies",
        "Lon": 3.3048918,
        "Lat": 50.7281602,
        "Language": "FR"
    },
    {
        "Postal_Code": 7611,
        "Name": "La Glanerie",
        "Lon": 3.305943,
        "Lat": 50.532325,
        "Language": "NL"
    },
    {
        "Postal_Code": 7730,
        "Name": "Estaimbourg",
        "Lon": 3.3098471,
        "Lat": 50.6803312,
        "Language": "NL"
    },
    {
        "Postal_Code": 8531,
        "Name": "Bavikhove",
        "Lon": 3.3112054,
        "Lat": 50.8754986,
        "Language": "NL"
    },
    {
        "Postal_Code": 8530,
        "Name": "Harelbeke",
        "Lon": 3.3121073,
        "Lat": 50.8455798,
        "Language": "NL"
    },
    {
        "Postal_Code": 7730,
        "Name": "Saint-L?er (Ht.)",
        "Lon": 3.3183539,
        "Lat": 50.7067812,
        "Language": "NL"
    },
    {
        "Postal_Code": 7730,
        "Name": "Bailleul",
        "Lon": 3.3186808,
        "Lat": 50.6697693,
        "Language": "NL"
    },
    {
        "Postal_Code": 8340,
        "Name": "Sijsele",
        "Lon": 3.3212461,
        "Lat": 51.2015613,
        "Language": "NL"
    },
    {
        "Postal_Code": 7522,
        "Name": "Marquain",
        "Lon": 3.3226106,
        "Lat": 50.6042275,
        "Language": "NL"
    },
    {
        "Postal_Code": 8700,
        "Name": "Tielt",
        "Lon": 3.3263821,
        "Lat": 51.0001519,
        "Language": "NL"
    },
    {
        "Postal_Code": 7504,
        "Name": "Froidmont",
        "Lon": 3.3280009,
        "Lat": 50.5784046,
        "Language": "NL"
    },
    {
        "Postal_Code": 8510,
        "Name": "Kooigem",
        "Lon": 3.3313161,
        "Lat": 50.7396942,
        "Language": "NL"
    },
    {
        "Postal_Code": 7740,
        "Name": "Pecq",
        "Lon": 3.3314663,
        "Lat": 50.699374,
        "Language": "NL"
    },
    {
        "Postal_Code": 8700,
        "Name": "Schuiferskapelle",
        "Lon": 3.33383,
        "Lat": 51.0328997,
        "Language": "NL"
    },
    {
        "Postal_Code": 8780,
        "Name": "Oostrozebeke",
        "Lon": 3.3345851,
        "Lat": 50.9201615,
        "Language": "NL"
    },
    {
        "Postal_Code": 8710,
        "Name": "Ooigem",
        "Lon": 3.3365046,
        "Lat": 50.8933706,
        "Language": "NL"
    },
    {
        "Postal_Code": 8340,
        "Name": "Hoeke",
        "Lon": 3.336729,
        "Lat": 51.2916219,
        "Language": "NL"
    },
    {
        "Postal_Code": 7520,
        "Name": "Ramegnies-Chin",
        "Lon": 3.3369103,
        "Lat": 50.651422,
        "Language": "NL"
    },
    {
        "Postal_Code": 8730,
        "Name": "Oedelem",
        "Lon": 3.3397246,
        "Lat": 51.1685563,
        "Language": "NL"
    },
    {
        "Postal_Code": 8340,
        "Name": "Moerkerke",
        "Lon": 3.340071,
        "Lat": 51.2430573,
        "Language": "NL"
    },
    {
        "Postal_Code": 7618,
        "Name": "Taintignies",
        "Lon": 3.3403627,
        "Lat": 50.5467427,
        "Language": "NL"
    },
    {
        "Postal_Code": 8730,
        "Name": "Beernem",
        "Lon": 3.3408333,
        "Lat": 51.1427778,
        "Language": "NL"
    },
    {
        "Postal_Code": 7740,
        "Name": "Warcoing",
        "Lon": 3.3439836,
        "Lat": 50.7043825,
        "Language": "NL"
    },
    {
        "Postal_Code": 7503,
        "Name": "Froyennes",
        "Lon": 3.3471214,
        "Lat": 50.6229047,
        "Language": "NL"
    },
    {
        "Postal_Code": 7501,
        "Name": "Orcq",
        "Lon": 3.3473905,
        "Lat": 50.6028664,
        "Language": "NL"
    },
    {
        "Postal_Code": 7743,
        "Name": "Esquelmes",
        "Lon": 3.3479165,
        "Lat": 50.6656092,
        "Language": "NL"
    },
    {
        "Postal_Code": 7506,
        "Name": "Willemeau",
        "Lon": 3.3491191,
        "Lat": 50.573464,
        "Language": "NL"
    },
    {
        "Postal_Code": 8792,
        "Name": "Desselgem",
        "Lon": 3.3494059,
        "Lat": 50.8868997,
        "Language": "NL"
    },
    {
        "Postal_Code": 8550,
        "Name": "Zwevegem",
        "Lon": 3.3505258,
        "Lat": 50.8080392,
        "Language": "NL"
    },
    {
        "Postal_Code": 8540,
        "Name": "Deerlijk",
        "Lon": 3.353722,
        "Lat": 50.85098,
        "Language": "NL"
    },
    {
        "Postal_Code": 8587,
        "Name": "Espierres",
        "Lon": 3.35537,
        "Lat": 50.7184934,
        "Language": "NL"
    },
    {
        "Postal_Code": 8587,
        "Name": "Spiere",
        "Lon": 3.35537,
        "Lat": 50.7184934,
        "Language": "NL"
    },
    {
        "Postal_Code": 7624,
        "Name": "Howardries",
        "Lon": 3.3557201,
        "Lat": 50.506075,
        "Language": "NL"
    },
    {
        "Postal_Code": 8340,
        "Name": "Lapscheure",
        "Lon": 3.3568337,
        "Lat": 51.2776457,
        "Language": "NL"
    },
    {
        "Postal_Code": 7742,
        "Name": "H?innes-lez-Pecq",
        "Lon": 3.3633472,
        "Lat": 50.701341,
        "Language": "NL"
    },
    {
        "Postal_Code": 7743,
        "Name": "Obigies",
        "Lon": 3.3640454,
        "Lat": 50.6619166,
        "Language": "NL"
    },
    {
        "Postal_Code": 8554,
        "Name": "Sint-Denijs",
        "Lon": 3.3653137,
        "Lat": 50.7530651,
        "Language": "NL"
    },
    {
        "Postal_Code": 8587,
        "Name": "Espierres-Helchin",
        "Lon": 3.3669444,
        "Lat": 50.7269444,
        "Language": "FR"
    },
    {
        "Postal_Code": 8587,
        "Name": "Spiere-Helkijn",
        "Lon": 3.3669444,
        "Lat": 50.7269444,
        "Language": "NL"
    },
    {
        "Postal_Code": 7620,
        "Name": "Guignies",
        "Lon": 3.3669917,
        "Lat": 50.5473025,
        "Language": "NL"
    },
    {
        "Postal_Code": 7500,
        "Name": "Ere",
        "Lon": 3.3683528,
        "Lat": 50.5809075,
        "Language": "NL"
    },
    {
        "Postal_Code": 8730,
        "Name": "Sint-Joris (Beernem)",
        "Lon": 3.3683708,
        "Lat": 51.1275828,
        "Language": "NL"
    },
    {
        "Postal_Code": 8710,
        "Name": "Wielsbeke",
        "Lon": 3.3724687,
        "Lat": 50.9099543,
        "Language": "NL"
    },
    {
        "Postal_Code": 7540,
        "Name": "Kain",
        "Lon": 3.3788194,
        "Lat": 50.6379973,
        "Language": "NL"
    },
    {
        "Postal_Code": 8587,
        "Name": "Helchin",
        "Lon": 3.3811463,
        "Lat": 50.7321848,
        "Language": "NL"
    },
    {
        "Postal_Code": 8587,
        "Name": "Helkijn",
        "Lon": 3.3811463,
        "Lat": 50.7321848,
        "Language": "FR"
    },
    {
        "Postal_Code": 7500,
        "Name": "Tournai",
        "Lon": 3.3880367,
        "Lat": 50.6056059,
        "Language": "NL"
    },
    {
        "Postal_Code": 7620,
        "Name": "Wez-Velvain",
        "Lon": 3.389033,
        "Lat": 50.5477881,
        "Language": "NL"
    },
    {
        "Postal_Code": 7621,
        "Name": "Lesdain",
        "Lon": 3.3892118,
        "Lat": 50.5204844,
        "Language": "NL"
    },
    {
        "Postal_Code": 8710,
        "Name": "Sint-Baafs-Vijve",
        "Lon": 3.3907682,
        "Lat": 50.9103986,
        "Language": "NL"
    },
    {
        "Postal_Code": 7623,
        "Name": "Rongy",
        "Lon": 3.3911678,
        "Lat": 50.5084038,
        "Language": "NL"
    },
    {
        "Postal_Code": 7500,
        "Name": "Saint-Maur",
        "Lon": 3.3945263,
        "Lat": 50.5727181,
        "Language": "NL"
    },
    {
        "Postal_Code": 8755,
        "Name": "Ruiselede",
        "Lon": 3.3970513,
        "Lat": 51.0413098,
        "Language": "NL"
    },
    {
        "Postal_Code": 8552,
        "Name": "Moen",
        "Lon": 3.3974267,
        "Lat": 50.7699733,
        "Language": "NL"
    },
    {
        "Postal_Code": 7620,
        "Name": "Brunehaut",
        "Lon": 3.3978021,
        "Lat": 50.541775,
        "Language": "NL"
    },
    {
        "Postal_Code": 8720,
        "Name": "Wakken",
        "Lon": 3.3979722,
        "Lat": 50.9306218,
        "Language": "NL"
    },
    {
        "Postal_Code": 8720,
        "Name": "Markegem",
        "Lon": 3.4026412,
        "Lat": 50.9458591,
        "Language": "NL"
    },
    {
        "Postal_Code": 8570,
        "Name": "Vichte",
        "Lon": 3.4030323,
        "Lat": 50.8378727,
        "Language": "NL"
    },
    {
        "Postal_Code": 8700,
        "Name": "Kanegem",
        "Lon": 3.4033279,
        "Lat": 51.0134353,
        "Language": "NL"
    },
    {
        "Postal_Code": 7620,
        "Name": "Jollain-Merlin",
        "Lon": 3.4039924,
        "Lat": 50.5391272,
        "Language": "NL"
    },
    {
        "Postal_Code": 7542,
        "Name": "Mont-Saint-Aubert",
        "Lon": 3.4040353,
        "Lat": 50.6548281,
        "Language": "NL"
    },
    {
        "Postal_Code": 7760,
        "Name": "Pottes",
        "Lon": 3.4064337,
        "Lat": 50.7311992,
        "Language": "NL"
    },
    {
        "Postal_Code": 8583,
        "Name": "Bossuit",
        "Lon": 3.4072881,
        "Lat": 50.7481174,
        "Language": "NL"
    },
    {
        "Postal_Code": 8793,
        "Name": "Sint-Eloois-Vijve",
        "Lon": 3.4098713,
        "Lat": 50.9034885,
        "Language": "NL"
    },
    {
        "Postal_Code": 8551,
        "Name": "Heestert",
        "Lon": 3.410366,
        "Lat": 50.7826441,
        "Language": "NL"
    },
    {
        "Postal_Code": 9910,
        "Name": "Knesselare",
        "Lon": 3.4127585,
        "Lat": 51.1389455,
        "Language": "NL"
    },
    {
        "Postal_Code": 7620,
        "Name": "Bl?aries",
        "Lon": 3.4148305,
        "Lat": 50.513041,
        "Language": "NL"
    },
    {
        "Postal_Code": 9992,
        "Name": "Middelburg",
        "Lon": 3.4150935,
        "Lat": 51.2547106,
        "Language": "NL"
    },
    {
        "Postal_Code": 8720,
        "Name": "Dentergem",
        "Lon": 3.4186283,
        "Lat": 50.9636458,
        "Language": "NL"
    },
    {
        "Postal_Code": 7521,
        "Name": "Chercq",
        "Lon": 3.4220483,
        "Lat": 50.589481,
        "Language": "NL"
    },
    {
        "Postal_Code": 8700,
        "Name": "Aarsele",
        "Lon": 3.4224989,
        "Lat": 50.9969343,
        "Language": "NL"
    },
    {
        "Postal_Code": 8790,
        "Name": "Waregem",
        "Lon": 3.4231317,
        "Lat": 50.8869521,
        "Language": "NL"
    },
    {
        "Postal_Code": 7548,
        "Name": "Warchin",
        "Lon": 3.4233289,
        "Lat": 50.6103448,
        "Language": "NL"
    },
    {
        "Postal_Code": 8553,
        "Name": "Otegem",
        "Lon": 3.4239803,
        "Lat": 50.8081889,
        "Language": "NL"
    },
    {
        "Postal_Code": 7620,
        "Name": "Hollain",
        "Lon": 3.4273185,
        "Lat": 50.5443138,
        "Language": "NL"
    },
    {
        "Postal_Code": 7641,
        "Name": "Bruyelle",
        "Lon": 3.4276343,
        "Lat": 50.5573826,
        "Language": "NL"
    },
    {
        "Postal_Code": 8582,
        "Name": "Outrijve",
        "Lon": 3.4292885,
        "Lat": 50.7560066,
        "Language": "NL"
    },
    {
        "Postal_Code": 7760,
        "Name": "Molenbaix",
        "Lon": 3.4299807,
        "Lat": 50.6932647,
        "Language": "NL"
    },
    {
        "Postal_Code": 8720,
        "Name": "Oeselgem",
        "Lon": 3.4319099,
        "Lat": 50.9350995,
        "Language": "NL"
    },
    {
        "Postal_Code": 9880,
        "Name": "Aalter",
        "Lon": 3.4323446,
        "Lat": 51.0769076,
        "Language": "NL"
    },
    {
        "Postal_Code": 7536,
        "Name": "Vaulx (Tournai)",
        "Lon": 3.4334752,
        "Lat": 50.5903852,
        "Language": "NL"
    },
    {
        "Postal_Code": 8570,
        "Name": "Ingooigem",
        "Lon": 3.4342331,
        "Lat": 50.8173718,
        "Language": "NL"
    },
    {
        "Postal_Code": 7642,
        "Name": "Calonne",
        "Lon": 3.4365062,
        "Lat": 50.5780363,
        "Language": "NL"
    },
    {
        "Postal_Code": 7540,
        "Name": "Rumillies",
        "Lon": 3.4368434,
        "Lat": 50.6199434,
        "Language": "NL"
    },
    {
        "Postal_Code": 9870,
        "Name": "Zulte",
        "Lon": 3.4437733,
        "Lat": 50.9219214,
        "Language": "NL"
    },
    {
        "Postal_Code": 9880,
        "Name": "Poeke",
        "Lon": 3.4440488,
        "Lat": 51.040935,
        "Language": "NL"
    },
    {
        "Postal_Code": 7543,
        "Name": "Mourcourt",
        "Lon": 3.4442619,
        "Lat": 50.6531232,
        "Language": "NL"
    },
    {
        "Postal_Code": 9800,
        "Name": "Wontergem",
        "Lon": 3.4445577,
        "Lat": 50.9794219,
        "Language": "NL"
    },
    {
        "Postal_Code": 7760,
        "Name": "Escanaffles",
        "Lon": 3.445065,
        "Lat": 50.756936,
        "Language": "NL"
    },
    {
        "Postal_Code": 7622,
        "Name": "Laplaigne",
        "Lon": 3.4469774,
        "Lat": 50.5207793,
        "Language": "NL"
    },
    {
        "Postal_Code": 9990,
        "Name": "Maldegem",
        "Lon": 3.4486611,
        "Lat": 51.209082,
        "Language": "NL"
    },
    {
        "Postal_Code": 8580,
        "Name": "Avelgem",
        "Lon": 3.4511795,
        "Lat": 50.7790895,
        "Language": "NL"
    },
    {
        "Postal_Code": 7640,
        "Name": "P?onnes-lez-Antoing",
        "Lon": 3.4541886,
        "Lat": 50.5503284,
        "Language": "NL"
    },
    {
        "Postal_Code": 7760,
        "Name": "Celles (Ht.)",
        "Lon": 3.4574913,
        "Lat": 50.7121072,
        "Language": "NL"
    },
    {
        "Postal_Code": 7640,
        "Name": "Antoing",
        "Lon": 3.4596501,
        "Lat": 50.5503239,
        "Language": "NL"
    },
    {
        "Postal_Code": 9800,
        "Name": "Gottem",
        "Lon": 3.461345,
        "Lat": 50.9649581,
        "Language": "NL"
    },
    {
        "Postal_Code": 7531,
        "Name": "Havinnes",
        "Lon": 3.463517,
        "Lat": 50.6157317,
        "Language": "NL"
    },
    {
        "Postal_Code": 9800,
        "Name": "Grammene",
        "Lon": 3.4648864,
        "Lat": 50.9771417,
        "Language": "NL"
    },
    {
        "Postal_Code": 9880,
        "Name": "Lotenhulle",
        "Lon": 3.4655772,
        "Lat": 51.0483873,
        "Language": "NL"
    },
    {
        "Postal_Code": 9870,
        "Name": "Olsene",
        "Lon": 3.4657328,
        "Lat": 50.9362129,
        "Language": "NL"
    },
    {
        "Postal_Code": 7643,
        "Name": "Fontenoy",
        "Lon": 3.4736321,
        "Lat": 50.567749,
        "Language": "NL"
    },
    {
        "Postal_Code": 8573,
        "Name": "Tiegem",
        "Lon": 3.4752664,
        "Lat": 50.8086089,
        "Language": "NL"
    },
    {
        "Postal_Code": 8570,
        "Name": "Anzegem",
        "Lon": 3.4784725,
        "Lat": 50.8326615,
        "Language": "NL"
    },
    {
        "Postal_Code": 9800,
        "Name": "Vinkt",
        "Lon": 3.4793989,
        "Lat": 51.0081641,
        "Language": "NL"
    },
    {
        "Postal_Code": 7750,
        "Name": "Orroir",
        "Lon": 3.4794562,
        "Lat": 50.748643,
        "Language": "NL"
    },
    {
        "Postal_Code": 7540,
        "Name": "Melles",
        "Lon": 3.4826517,
        "Lat": 50.6466009,
        "Language": "NL"
    },
    {
        "Postal_Code": 9690,
        "Name": "Ruien",
        "Lon": 3.4829674,
        "Lat": 50.770725,
        "Language": "NL"
    },
    {
        "Postal_Code": 8581,
        "Name": "Waarmaarde",
        "Lon": 3.4854501,
        "Lat": 50.7908774,
        "Language": "NL"
    },
    {
        "Postal_Code": 9910,
        "Name": "Ursel",
        "Lon": 3.4856153,
        "Lat": 51.1294092,
        "Language": "NL"
    },
    {
        "Postal_Code": 7760,
        "Name": "Velaines",
        "Lon": 3.4866943,
        "Lat": 50.6698088,
        "Language": "NL"
    },
    {
        "Postal_Code": 7530,
        "Name": "Gaurain-Ramecroix (Tournai)",
        "Lon": 3.4892888,
        "Lat": 50.5938686,
        "Language": "NL"
    },
    {
        "Postal_Code": 9991,
        "Name": "Adegem",
        "Lon": 3.4900074,
        "Lat": 51.2045152,
        "Language": "NL"
    },
    {
        "Postal_Code": 9881,
        "Name": "Bellem",
        "Lon": 3.4906454,
        "Lat": 51.0884355,
        "Language": "NL"
    },
    {
        "Postal_Code": 9690,
        "Name": "Kluisbergen",
        "Lon": 3.4935589,
        "Lat": 50.7784304,
        "Language": "NL"
    },
    {
        "Postal_Code": 8572,
        "Name": "Kaster",
        "Lon": 3.4938322,
        "Lat": 50.8131679,
        "Language": "NL"
    },
    {
        "Postal_Code": 7640,
        "Name": "Maubray",
        "Lon": 3.495748,
        "Lat": 50.5314797,
        "Language": "NL"
    },
    {
        "Postal_Code": 7538,
        "Name": "Vezon",
        "Lon": 3.5002803,
        "Lat": 50.5719086,
        "Language": "NL"
    },
    {
        "Postal_Code": 8581,
        "Name": "Kerkhove",
        "Lon": 3.5006455,
        "Lat": 50.7983592,
        "Language": "NL"
    },
    {
        "Postal_Code": 9800,
        "Name": "Zeveren",
        "Lon": 3.5011056,
        "Lat": 50.9962852,
        "Language": "NL"
    },
    {
        "Postal_Code": 7532,
        "Name": "Beclers",
        "Lon": 3.5046928,
        "Lat": 50.6209471,
        "Language": "NL"
    },
    {
        "Postal_Code": 7750,
        "Name": "Mont-de-l'Enclus",
        "Lon": 3.5052669,
        "Lat": 50.7403202,
        "Language": "NL"
    },
    {
        "Postal_Code": 8570,
        "Name": "Gijzelbrechtegem",
        "Lon": 3.5058127,
        "Lat": 50.8285391,
        "Language": "NL"
    },
    {
        "Postal_Code": 7750,
        "Name": "Amougies",
        "Lon": 3.5068355,
        "Lat": 50.74428,
        "Language": "NL"
    },
    {
        "Postal_Code": 9690,
        "Name": "Berchem (O.-Vl.)",
        "Lon": 3.5095443,
        "Lat": 50.7901621,
        "Language": "NL"
    },
    {
        "Postal_Code": 7533,
        "Name": "Thimougies",
        "Lon": 3.5096897,
        "Lat": 50.6345381,
        "Language": "NL"
    },
    {
        "Postal_Code": 9790,
        "Name": "Wortegem",
        "Lon": 3.5102432,
        "Lat": 50.8520887,
        "Language": "NL"
    },
    {
        "Postal_Code": 9771,
        "Name": "Nokere",
        "Lon": 3.5105895,
        "Lat": 50.8850943,
        "Language": "NL"
    },
    {
        "Postal_Code": 7540,
        "Name": "Quartes",
        "Lon": 3.513078,
        "Lat": 50.6493706,
        "Language": "NL"
    },
    {
        "Postal_Code": 9850,
        "Name": "Poesele",
        "Lon": 3.5161497,
        "Lat": 51.033991,
        "Language": "NL"
    },
    {
        "Postal_Code": 7760,
        "Name": "Popuelles",
        "Lon": 3.518789,
        "Lat": 50.6624916,
        "Language": "NL"
    },
    {
        "Postal_Code": 7750,
        "Name": "Anseroeul",
        "Lon": 3.5212662,
        "Lat": 50.726965,
        "Language": "NL"
    },
    {
        "Postal_Code": 9800,
        "Name": "Deinze",
        "Lon": 3.5235857,
        "Lat": 50.9875642,
        "Language": "NL"
    },
    {
        "Postal_Code": 7604,
        "Name": "Callenelle",
        "Lon": 3.5243768,
        "Lat": 50.5313231,
        "Language": "NL"
    },
    {
        "Postal_Code": 9931,
        "Name": "Oostwinkel",
        "Lon": 3.5252604,
        "Lat": 51.1508463,
        "Language": "NL"
    },
    {
        "Postal_Code": 9690,
        "Name": "Kwaremont",
        "Lon": 3.5253769,
        "Lat": 50.7767287,
        "Language": "NL"
    },
    {
        "Postal_Code": 7750,
        "Name": "Russeignies",
        "Lon": 3.530783,
        "Lat": 50.7446224,
        "Language": "NL"
    },
    {
        "Postal_Code": 7608,
        "Name": "Wiers",
        "Lon": 3.5327736,
        "Lat": 50.5083673,
        "Language": "NL"
    },
    {
        "Postal_Code": 7910,
        "Name": "Cordes",
        "Lon": 3.5329359,
        "Lat": 50.6884582,
        "Language": "NL"
    },
    {
        "Postal_Code": 9980,
        "Name": "Sint-Laureins",
        "Lon": 3.5329424,
        "Lat": 51.2361689,
        "Language": "NL"
    },
    {
        "Postal_Code": 7910,
        "Name": "Frasnes-lez-Anvaing",
        "Lon": 3.5330692,
        "Lat": 50.6986439,
        "Language": "NL"
    },
    {
        "Postal_Code": 9800,
        "Name": "Petegem-aan-de-Leie",
        "Lon": 3.5338779,
        "Lat": 50.9800082,
        "Language": "NL"
    },
    {
        "Postal_Code": 9790,
        "Name": "Elsegem",
        "Lon": 3.5353615,
        "Lat": 50.8245725,
        "Language": "NL"
    },
    {
        "Postal_Code": 9850,
        "Name": "Hansbeke",
        "Lon": 3.5356476,
        "Lat": 51.0747168,
        "Language": "NL"
    },
    {
        "Postal_Code": 7604,
        "Name": "Wasmes-Audemez-Briffoeil",
        "Lon": 3.5359058,
        "Lat": 50.5512323,
        "Language": "NL"
    },
    {
        "Postal_Code": 7910,
        "Name": "Forest (Ht.)",
        "Lon": 3.5366398,
        "Lat": 50.6732879,
        "Language": "NL"
    },
    {
        "Postal_Code": 9770,
        "Name": "Kruishoutem",
        "Lon": 3.5373587,
        "Lat": 50.9275809,
        "Language": "NL"
    },
    {
        "Postal_Code": 9800,
        "Name": "Meigem",
        "Lon": 3.5404289,
        "Lat": 51.0168961,
        "Language": "NL"
    },
    {
        "Postal_Code": 7534,
        "Name": "Barry",
        "Lon": 3.5416068,
        "Lat": 50.5848568,
        "Language": "NL"
    },
    {
        "Postal_Code": 7604,
        "Name": "Brasmenil",
        "Lon": 3.5468718,
        "Lat": 50.541468,
        "Language": "NL"
    },
    {
        "Postal_Code": 9981,
        "Name": "Sint-Margriete",
        "Lon": 3.5469357,
        "Lat": 51.2803944,
        "Language": "NL"
    },
    {
        "Postal_Code": 7910,
        "Name": "Arc-Aini?es",
        "Lon": 3.5469602,
        "Lat": 50.7021983,
        "Language": "NL"
    },
    {
        "Postal_Code": 9850,
        "Name": "Nevele",
        "Lon": 3.5478736,
        "Lat": 51.0343466,
        "Language": "NL"
    },
    {
        "Postal_Code": 7534,
        "Name": "Maulde",
        "Lon": 3.5480139,
        "Lat": 50.6165291,
        "Language": "NL"
    },
    {
        "Postal_Code": 7910,
        "Name": "Arc-Wattripont",
        "Lon": 3.5480229,
        "Lat": 50.728684,
        "Language": "NL"
    },
    {
        "Postal_Code": 7910,
        "Name": "Wattripont",
        "Lon": 3.5480229,
        "Lat": 50.728684,
        "Language": "NL"
    },
    {
        "Postal_Code": 9790,
        "Name": "Ooike (Wortegem-Petegem)",
        "Lon": 3.5510607,
        "Lat": 50.8698651,
        "Language": "NL"
    },
    {
        "Postal_Code": 9772,
        "Name": "Wannegem-Lede",
        "Lon": 3.5515066,
        "Lat": 50.889802,
        "Language": "NL"
    },
    {
        "Postal_Code": 9932,
        "Name": "Ronsele",
        "Lon": 3.5516605,
        "Lat": 51.1309736,
        "Language": "NL"
    },
    {
        "Postal_Code": 7604,
        "Name": "Baugnies",
        "Lon": 3.5517755,
        "Lat": 50.5615397,
        "Language": "NL"
    },
    {
        "Postal_Code": 9790,
        "Name": "Petegem-aan-de-Schelde",
        "Lon": 3.556078,
        "Lat": 50.8333051,
        "Language": "NL"
    },
    {
        "Postal_Code": 9850,
        "Name": "Vosselare",
        "Lon": 3.5574385,
        "Lat": 51.0294647,
        "Language": "NL"
    },
    {
        "Postal_Code": 9800,
        "Name": "Astene",
        "Lon": 3.5604333,
        "Lat": 50.9837892,
        "Language": "NL"
    },
    {
        "Postal_Code": 7910,
        "Name": "Anvaing",
        "Lon": 3.5610313,
        "Lat": 50.6827667,
        "Language": "NL"
    },
    {
        "Postal_Code": 9930,
        "Name": "Zomergem",
        "Lon": 3.5611179,
        "Lat": 51.1148946,
        "Language": "NL"
    },
    {
        "Postal_Code": 9900,
        "Name": "Eeklo",
        "Lon": 3.561291,
        "Lat": 51.187908,
        "Language": "NL"
    },
    {
        "Postal_Code": 9790,
        "Name": "Moregem",
        "Lon": 3.5614071,
        "Lat": 50.8504552,
        "Language": "NL"
    },
    {
        "Postal_Code": 9700,
        "Name": "Melden",
        "Lon": 3.5642799,
        "Lat": 50.8138095,
        "Language": "NL"
    },
    {
        "Postal_Code": 7912,
        "Name": "Dergneau",
        "Lon": 3.5689855,
        "Lat": 50.7132742,
        "Language": "NL"
    },
    {
        "Postal_Code": 9690,
        "Name": "Zulzeke",
        "Lon": 3.5708891,
        "Lat": 50.7889651,
        "Language": "NL"
    },
    {
        "Postal_Code": 7911,
        "Name": "Montroeul-au-Bois",
        "Lon": 3.5721235,
        "Lat": 50.6475838,
        "Language": "NL"
    },
    {
        "Postal_Code": 9850,
        "Name": "Landegem",
        "Lon": 3.5731481,
        "Lat": 51.0567048,
        "Language": "NL"
    },
    {
        "Postal_Code": 7906,
        "Name": "Gallaix",
        "Lon": 3.5739204,
        "Lat": 50.6053041,
        "Language": "NL"
    },
    {
        "Postal_Code": 9982,
        "Name": "Sint-Jan-in-Eremo",
        "Lon": 3.5768505,
        "Lat": 51.2737009,
        "Language": "NL"
    },
    {
        "Postal_Code": 9850,
        "Name": "Merendree",
        "Lon": 3.577022,
        "Lat": 51.0777421,
        "Language": "NL"
    },
    {
        "Postal_Code": 7911,
        "Name": "Herquegies",
        "Lon": 3.5780843,
        "Lat": 50.6349791,
        "Language": "NL"
    },
    {
        "Postal_Code": 9800,
        "Name": "Bachte-Maria-Leerne",
        "Lon": 3.5783676,
        "Lat": 51.0108541,
        "Language": "NL"
    },
    {
        "Postal_Code": 7904,
        "Name": "Pipaix",
        "Lon": 3.5787649,
        "Lat": 50.5836922,
        "Language": "NL"
    },
    {
        "Postal_Code": 7604,
        "Name": "Braffe",
        "Lon": 3.5820315,
        "Lat": 50.5522367,
        "Language": "NL"
    },
    {
        "Postal_Code": 7601,
        "Name": "Roucourt",
        "Lon": 3.5871404,
        "Lat": 50.5291691,
        "Language": "NL"
    },
    {
        "Postal_Code": 9700,
        "Name": "Bevere",
        "Lon": 3.5875451,
        "Lat": 50.8523695,
        "Language": "NL"
    },
    {
        "Postal_Code": 9800,
        "Name": "Sint-Martens-Leerne",
        "Lon": 3.5877172,
        "Lat": 51.0154398,
        "Language": "NL"
    },
    {
        "Postal_Code": 9750,
        "Name": "Huise",
        "Lon": 3.5896534,
        "Lat": 50.8993266,
        "Language": "NL"
    },
    {
        "Postal_Code": 9988,
        "Name": "Waterland-Oudeman",
        "Lon": 3.5902999,
        "Lat": 51.2888925,
        "Language": "NL"
    },
    {
        "Postal_Code": 7910,
        "Name": "Ellignies-lez-Frasnes",
        "Lon": 3.59064,
        "Lat": 50.67474,
        "Language": "NL"
    },
    {
        "Postal_Code": 7602,
        "Name": "Bury",
        "Lon": 3.5934527,
        "Lat": 50.5424563,
        "Language": "NL"
    },
    {
        "Postal_Code": 7911,
        "Name": "Hacquegnies",
        "Lon": 3.5935257,
        "Lat": 50.6513567,
        "Language": "NL"
    },
    {
        "Postal_Code": 9681,
        "Name": "Nukerke",
        "Lon": 3.5947056,
        "Lat": 50.79703,
        "Language": "NL"
    },
    {
        "Postal_Code": 9810,
        "Name": "Nazareth",
        "Lon": 3.5951408,
        "Lat": 50.9597659,
        "Language": "NL"
    },
    {
        "Postal_Code": 7912,
        "Name": "Saint-Sauveur",
        "Lon": 3.5973713,
        "Lat": 50.7062467,
        "Language": "NL"
    },
    {
        "Postal_Code": 9750,
        "Name": "Ouwegem",
        "Lon": 3.5992209,
        "Lat": 50.9115762,
        "Language": "NL"
    },
    {
        "Postal_Code": 7600,
        "Name": "P?uwelz",
        "Lon": 3.6013594,
        "Lat": 50.5149368,
        "Language": "NL"
    },
    {
        "Postal_Code": 9700,
        "Name": "Oudenaarde",
        "Lon": 3.6014367,
        "Lat": 50.8469306,
        "Language": "NL"
    },
    {
        "Postal_Code": 9700,
        "Name": "Leupegem",
        "Lon": 3.6018007,
        "Lat": 50.8329265,
        "Language": "NL"
    },
    {
        "Postal_Code": 9700,
        "Name": "Mullem",
        "Lon": 3.6030581,
        "Lat": 50.8912265,
        "Language": "NL"
    },
    {
        "Postal_Code": 9950,
        "Name": "Waarschoot",
        "Lon": 3.603095,
        "Lat": 51.150958,
        "Language": "NL"
    },
    {
        "Postal_Code": 7904,
        "Name": "Willaupuis",
        "Lon": 3.6032726,
        "Lat": 50.5666962,
        "Language": "NL"
    },
    {
        "Postal_Code": 9600,
        "Name": "Renaix",
        "Lon": 3.6040642,
        "Lat": 50.7497709,
        "Language": "FR"
    },
    {
        "Postal_Code": 9600,
        "Name": "Ronse",
        "Lon": 3.6040642,
        "Lat": 50.7497709,
        "Language": "NL"
    },
    {
        "Postal_Code": 9831,
        "Name": "Deurle",
        "Lon": 3.6043494,
        "Lat": 51.0092272,
        "Language": "NL"
    },
    {
        "Postal_Code": 7901,
        "Name": "Thieulain",
        "Lon": 3.6051759,
        "Lat": 50.6179227,
        "Language": "NL"
    },
    {
        "Postal_Code": 7603,
        "Name": "Bon-Secours",
        "Lon": 3.6073123,
        "Lat": 50.4974738,
        "Language": "NL"
    },
    {
        "Postal_Code": 9970,
        "Name": "Kaprijke",
        "Lon": 3.6186057,
        "Lat": 51.223075,
        "Language": "NL"
    },
    {
        "Postal_Code": 7911,
        "Name": "Frasnes-lez-Buissenal",
        "Lon": 3.6197759,
        "Lat": 50.6699339,
        "Language": "NL"
    },
    {
        "Postal_Code": 7911,
        "Name": "Moustier (Ht.)",
        "Lon": 3.6201695,
        "Lat": 50.6560229,
        "Language": "NL"
    },
    {
        "Postal_Code": 9700,
        "Name": "Eine",
        "Lon": 3.620744,
        "Lat": 50.867937,
        "Language": "NL"
    },
    {
        "Postal_Code": 7900,
        "Name": "Leuze-en-Hainaut",
        "Lon": 3.6241539,
        "Lat": 50.5971918,
        "Language": "NL"
    },
    {
        "Postal_Code": 9680,
        "Name": "Etikhove",
        "Lon": 3.6266634,
        "Lat": 50.812527,
        "Language": "NL"
    },
    {
        "Postal_Code": 9988,
        "Name": "Watervliet",
        "Lon": 3.6270198,
        "Lat": 51.2765175,
        "Language": "NL"
    },
    {
        "Postal_Code": 9920,
        "Name": "Lovendegem",
        "Lon": 3.6285575,
        "Lat": 51.1075935,
        "Language": "NL"
    },
    {
        "Postal_Code": 9700,
        "Name": "Edelare",
        "Lon": 3.6287307,
        "Lat": 50.8302334,
        "Language": "NL"
    },
    {
        "Postal_Code": 9700,
        "Name": "Heurne",
        "Lon": 3.6287389,
        "Lat": 50.8837448,
        "Language": "NL"
    },
    {
        "Postal_Code": 9830,
        "Name": "Sint-Martens-Latem",
        "Lon": 3.6287716,
        "Lat": 51.0135066,
        "Language": "NL"
    },
    {
        "Postal_Code": 7971,
        "Name": "Thumaide",
        "Lon": 3.6304535,
        "Lat": 50.5403972,
        "Language": "NL"
    },
    {
        "Postal_Code": 7900,
        "Name": "Grandmetz",
        "Lon": 3.6310729,
        "Lat": 50.6230881,
        "Language": "NL"
    },
    {
        "Postal_Code": 9700,
        "Name": "Ename",
        "Lon": 3.6319101,
        "Lat": 50.8570277,
        "Language": "NL"
    },
    {
        "Postal_Code": 9971,
        "Name": "Lembeke",
        "Lon": 3.6330207,
        "Lat": 51.1945809,
        "Language": "NL"
    },
    {
        "Postal_Code": 7971,
        "Name": "Ramegnies",
        "Lon": 3.634732,
        "Lat": 50.544033,
        "Language": "NL"
    },
    {
        "Postal_Code": 9700,
        "Name": "Nederename",
        "Lon": 3.6348815,
        "Lat": 50.8667191,
        "Language": "NL"
    },
    {
        "Postal_Code": 9810,
        "Name": "Eke",
        "Lon": 3.6374551,
        "Lat": 50.9580565,
        "Language": "NL"
    },
    {
        "Postal_Code": 9921,
        "Name": "Vinderhoute",
        "Lon": 3.6407214,
        "Lat": 51.0869089,
        "Language": "NL"
    },
    {
        "Postal_Code": 9700,
        "Name": "Volkegem",
        "Lon": 3.6427814,
        "Lat": 50.8393802,
        "Language": "NL"
    },
    {
        "Postal_Code": 9680,
        "Name": "Maarkedal",
        "Lon": 3.6442007,
        "Lat": 50.7992486,
        "Language": "NL"
    },
    {
        "Postal_Code": 7320,
        "Name": "Bernissart",
        "Lon": 3.6459245,
        "Lat": 50.4824696,
        "Language": "NL"
    },
    {
        "Postal_Code": 7971,
        "Name": "Bas?les",
        "Lon": 3.6488934,
        "Lat": 50.5259119,
        "Language": "NL"
    },
    {
        "Postal_Code": 9031,
        "Name": "Drongen",
        "Lon": 3.6500631,
        "Lat": 51.0509087,
        "Language": "NL"
    },
    {
        "Postal_Code": 9840,
        "Name": "De Pinte",
        "Lon": 3.650462,
        "Lat": 50.991095,
        "Language": "NL"
    },
    {
        "Postal_Code": 9890,
        "Name": "Asper",
        "Lon": 3.6510321,
        "Lat": 50.9160245,
        "Language": "NL"
    },
    {
        "Postal_Code": 7903,
        "Name": "Chapelle-Wattines",
        "Lon": 3.6525272,
        "Lat": 50.6121186,
        "Language": "NL"
    },
    {
        "Postal_Code": 9750,
        "Name": "Zingem",
        "Lon": 3.6526704,
        "Lat": 50.9013629,
        "Language": "NL"
    },
    {
        "Postal_Code": 7971,
        "Name": "Wadelincourt",
        "Lon": 3.6533891,
        "Lat": 50.5376959,
        "Language": "NL"
    },
    {
        "Postal_Code": 9680,
        "Name": "Maarke-Kerkem",
        "Lon": 3.6541835,
        "Lat": 50.815968,
        "Language": "NL"
    },
    {
        "Postal_Code": 7904,
        "Name": "Tourpes",
        "Lon": 3.6548155,
        "Lat": 50.5710803,
        "Language": "NL"
    },
    {
        "Postal_Code": 9700,
        "Name": "Welden",
        "Lon": 3.6555399,
        "Lat": 50.8784011,
        "Language": "NL"
    },
    {
        "Postal_Code": 7911,
        "Name": "Buissenal",
        "Lon": 3.6557135,
        "Lat": 50.6642045,
        "Language": "NL"
    },
    {
        "Postal_Code": 7321,
        "Name": "Blaton",
        "Lon": 3.6598433,
        "Lat": 50.4992803,
        "Language": "NL"
    },
    {
        "Postal_Code": 9890,
        "Name": "Gavere",
        "Lon": 3.663113,
        "Lat": 50.92634,
        "Language": "NL"
    },
    {
        "Postal_Code": 9700,
        "Name": "Mater",
        "Lon": 3.6635537,
        "Lat": 50.8424603,
        "Language": "NL"
    },
    {
        "Postal_Code": 9890,
        "Name": "Semmerzake",
        "Lon": 3.6647202,
        "Lat": 50.9430929,
        "Language": "NL"
    },
    {
        "Postal_Code": 9051,
        "Name": "Afsnee",
        "Lon": 3.6661568,
        "Lat": 51.0305603,
        "Language": "NL"
    },
    {
        "Postal_Code": 9051,
        "Name": "Sint-Denijs-Westrem",
        "Lon": 3.6695793,
        "Lat": 51.0200854,
        "Language": "NL"
    },
    {
        "Postal_Code": 7903,
        "Name": "Chapelle-Oie",
        "Lon": 3.6706651,
        "Lat": 50.5966376,
        "Language": "NL"
    },
    {
        "Postal_Code": 7387,
        "Name": "Marchipont",
        "Lon": 3.67255,
        "Lat": 50.37506,
        "Language": "NL"
    },
    {
        "Postal_Code": 7972,
        "Name": "Ellignies-Sainte-Anne",
        "Lon": 3.67696,
        "Lat": 50.5627762,
        "Language": "NL"
    },
    {
        "Postal_Code": 9688,
        "Name": "Schorisse",
        "Lon": 3.6769838,
        "Lat": 50.8044682,
        "Language": "NL"
    },
    {
        "Postal_Code": 9968,
        "Name": "Bassevelde",
        "Lon": 3.6777432,
        "Lat": 51.2300624,
        "Language": "NL"
    },
    {
        "Postal_Code": 7890,
        "Name": "Ellezelles",
        "Lon": 3.6784533,
        "Lat": 50.7340811,
        "Language": "NL"
    },
    {
        "Postal_Code": 9940,
        "Name": "Sleidinge",
        "Lon": 3.6789117,
        "Lat": 51.1319702,
        "Language": "NL"
    },
    {
        "Postal_Code": 7812,
        "Name": "Houtaing",
        "Lon": 3.679122,
        "Lat": 50.6405033,
        "Language": "NL"
    },
    {
        "Postal_Code": 7972,
        "Name": "Quevaucamps",
        "Lon": 3.6801487,
        "Lat": 50.5186636,
        "Language": "NL"
    },
    {
        "Postal_Code": 9030,
        "Name": "Mariakerke (Gent)",
        "Lon": 3.680642,
        "Lat": 51.0736204,
        "Language": "NL"
    },
    {
        "Postal_Code": 7972,
        "Name": "Aubechies",
        "Lon": 3.6814062,
        "Lat": 50.5724436,
        "Language": "NL"
    },
    {
        "Postal_Code": 9890,
        "Name": "Vurste",
        "Lon": 3.6843031,
        "Lat": 50.9490931,
        "Language": "NL"
    },
    {
        "Postal_Code": 7350,
        "Name": "Hensies",
        "Lon": 3.684904,
        "Lat": 50.4327789,
        "Language": "NL"
    },
    {
        "Postal_Code": 9636,
        "Name": "Nederzwalm-Hermelgem",
        "Lon": 3.6863847,
        "Lat": 50.8875058,
        "Language": "NL"
    },
    {
        "Postal_Code": 9667,
        "Name": "Horebeke",
        "Lon": 3.68672,
        "Lat": 50.8372,
        "Language": "NL"
    },
    {
        "Postal_Code": 9890,
        "Name": "Dikkelvenne",
        "Lon": 3.6874247,
        "Lat": 50.9190023,
        "Language": "NL"
    },
    {
        "Postal_Code": 9968,
        "Name": "Oosteeklo",
        "Lon": 3.6883778,
        "Lat": 51.1920171,
        "Language": "NL"
    },
    {
        "Postal_Code": 7380,
        "Name": "Qui?rain",
        "Lon": 3.6904002,
        "Lat": 50.4034322,
        "Language": "NL"
    },
    {
        "Postal_Code": 7387,
        "Name": "Angreau",
        "Lon": 3.69081,
        "Lat": 50.35064,
        "Language": "NL"
    },
    {
        "Postal_Code": 9667,
        "Name": "Sint-Maria-Horebeke",
        "Lon": 3.691596,
        "Lat": 50.84049,
        "Language": "NL"
    },
    {
        "Postal_Code": 7903,
        "Name": "Blicquy",
        "Lon": 3.6916495,
        "Lat": 50.5871723,
        "Language": "NL"
    },
    {
        "Postal_Code": 7387,
        "Name": "Roisin",
        "Lon": 3.69353,
        "Lat": 50.33307,
        "Language": "NL"
    },
    {
        "Postal_Code": 9820,
        "Name": "Melsen",
        "Lon": 3.6940645,
        "Lat": 50.9563191,
        "Language": "NL"
    },
    {
        "Postal_Code": 7973,
        "Name": "Grandglise",
        "Lon": 3.6942392,
        "Lat": 50.505325,
        "Language": "NL"
    },
    {
        "Postal_Code": 7387,
        "Name": "Honnelles",
        "Lon": 3.6942525,
        "Lat": 50.366628,
        "Language": "NL"
    },
    {
        "Postal_Code": 7321,
        "Name": "Harchies",
        "Lon": 3.6946534,
        "Lat": 50.4803048,
        "Language": "NL"
    },
    {
        "Postal_Code": 9840,
        "Name": "Zevergem",
        "Lon": 3.6961517,
        "Lat": 50.9791445,
        "Language": "NL"
    },
    {
        "Postal_Code": 7380,
        "Name": "Baisieux",
        "Lon": 3.697523,
        "Lat": 50.390588,
        "Language": "NL"
    },
    {
        "Postal_Code": 7387,
        "Name": "Angre",
        "Lon": 3.69813,
        "Lat": 50.36839,
        "Language": "NL"
    },
    {
        "Postal_Code": 9667,
        "Name": "Sint-Kornelis-Horebeke",
        "Lon": 3.6983276,
        "Lat": 50.834426,
        "Language": "NL"
    },
    {
        "Postal_Code": 9630,
        "Name": "Meilegem",
        "Lon": 3.6989579,
        "Lat": 50.9049599,
        "Language": "NL"
    },
    {
        "Postal_Code": 7350,
        "Name": "Montroeul-sur-Haine",
        "Lon": 3.7039398,
        "Lat": 50.4355247,
        "Language": "NL"
    },
    {
        "Postal_Code": 7812,
        "Name": "Ligne",
        "Lon": 3.7046301,
        "Lat": 50.6215858,
        "Language": "NL"
    },
    {
        "Postal_Code": 9940,
        "Name": "Evergem",
        "Lon": 3.7067231,
        "Lat": 51.1101028,
        "Language": "NL"
    },
    {
        "Postal_Code": 9630,
        "Name": "Sint-Maria-Latem",
        "Lon": 3.7068644,
        "Lat": 50.890211,
        "Language": "NL"
    },
    {
        "Postal_Code": 7911,
        "Name": "Oeudeghien",
        "Lon": 3.7088142,
        "Lat": 50.6793101,
        "Language": "NL"
    },
    {
        "Postal_Code": 9052,
        "Name": "Zwijnaarde",
        "Lon": 3.7106183,
        "Lat": 50.9998062,
        "Language": "NL"
    },
    {
        "Postal_Code": 9630,
        "Name": "Sint-Denijs-Boekel",
        "Lon": 3.711336,
        "Lat": 50.8649078,
        "Language": "NL"
    },
    {
        "Postal_Code": 7322,
        "Name": "Pommeroeul",
        "Lon": 3.7129612,
        "Lat": 50.4623107,
        "Language": "NL"
    },
    {
        "Postal_Code": 9820,
        "Name": "Schelderode",
        "Lon": 3.7155352,
        "Lat": 50.9713789,
        "Language": "NL"
    },
    {
        "Postal_Code": 9630,
        "Name": "Paulatem",
        "Lon": 3.7156505,
        "Lat": 50.8962994,
        "Language": "NL"
    },
    {
        "Postal_Code": 7812,
        "Name": "Moulbaix",
        "Lon": 3.7157035,
        "Lat": 50.6015858,
        "Language": "NL"
    },
    {
        "Postal_Code": 9032,
        "Name": "Wondelgem",
        "Lon": 3.7160657,
        "Lat": 51.0905009,
        "Language": "NL"
    },
    {
        "Postal_Code": 7387,
        "Name": "Onnezies",
        "Lon": 3.71647,
        "Lat": 50.36319,
        "Language": "NL"
    },
    {
        "Postal_Code": 9630,
        "Name": "Beerlegem",
        "Lon": 3.7167363,
        "Lat": 50.9058963,
        "Language": "NL"
    },
    {
        "Postal_Code": 7812,
        "Name": "Mainvault",
        "Lon": 3.7168499,
        "Lat": 50.6490683,
        "Language": "NL"
    },
    {
        "Postal_Code": 7973,
        "Name": "Stambruges",
        "Lon": 3.7172081,
        "Lat": 50.5085894,
        "Language": "NL"
    },
    {
        "Postal_Code": 7382,
        "Name": "Audregnies",
        "Lon": 3.7175716,
        "Lat": 50.3830616,
        "Language": "NL"
    },
    {
        "Postal_Code": 9660,
        "Name": "Zegelsem",
        "Lon": 3.7181357,
        "Lat": 50.8188341,
        "Language": "NL"
    },
    {
        "Postal_Code": 9961,
        "Name": "Boekhoute",
        "Lon": 3.7181501,
        "Lat": 51.2581738,
        "Language": "NL"
    },
    {
        "Postal_Code": 9630,
        "Name": "Sint-Blasius-Boekel",
        "Lon": 3.719383,
        "Lat": 50.8516744,
        "Language": "NL"
    },
    {
        "Postal_Code": 9890,
        "Name": "Baaigem",
        "Lon": 3.7219346,
        "Lat": 50.9296017,
        "Language": "NL"
    },
    {
        "Postal_Code": 7890,
        "Name": "Lahamaide",
        "Lon": 3.724979,
        "Lat": 50.6949026,
        "Language": "NL"
    },
    {
        "Postal_Code": 7970,
        "Name": "Beloeil",
        "Lon": 3.7256357,
        "Lat": 50.5317621,
        "Language": "NL"
    },
    {
        "Postal_Code": 9630,
        "Name": "Zwalm",
        "Lon": 3.7288705,
        "Lat": 50.8799184,
        "Language": "NL"
    },
    {
        "Postal_Code": 7812,
        "Name": "Villers-Saint-Amand",
        "Lon": 3.7289144,
        "Lat": 50.6227748,
        "Language": "NL"
    },
    {
        "Postal_Code": 9000,
        "Name": "Gent",
        "Lon": 3.7290914,
        "Lat": 51.0678307,
        "Language": "NL"
    },
    {
        "Postal_Code": 7322,
        "Name": "Ville-Pommeroeul",
        "Lon": 3.7293137,
        "Lat": 50.4708319,
        "Language": "NL"
    },
    {
        "Postal_Code": 9940,
        "Name": "Kluizen",
        "Lon": 3.7303321,
        "Lat": 51.1557298,
        "Language": "NL"
    },
    {
        "Postal_Code": 9630,
        "Name": "Munkzwalm",
        "Lon": 3.7330622,
        "Lat": 50.8778017,
        "Language": "NL"
    },
    {
        "Postal_Code": 7387,
        "Name": "Autreppe",
        "Lon": 3.73442,
        "Lat": 50.34914,
        "Language": "NL"
    },
    {
        "Postal_Code": 7387,
        "Name": "Montignies-sur-Roc",
        "Lon": 3.73608,
        "Lat": 50.36841,
        "Language": "NL"
    },
    {
        "Postal_Code": 7812,
        "Name": "Villers-Notre-Dame",
        "Lon": 3.7361557,
        "Lat": 50.6168631,
        "Language": "NL"
    },
    {
        "Postal_Code": 7880,
        "Name": "Flobecq",
        "Lon": 3.73852,
        "Lat": 50.7367,
        "Language": "FR"
    },
    {
        "Postal_Code": 7880,
        "Name": "Vloesberg",
        "Lon": 3.73852,
        "Lat": 50.7367,
        "Language": "NL"
    },
    {
        "Postal_Code": 9660,
        "Name": "Elst",
        "Lon": 3.7386165,
        "Lat": 50.8312919,
        "Language": "NL"
    },
    {
        "Postal_Code": 7350,
        "Name": "Thulin",
        "Lon": 3.7391863,
        "Lat": 50.4290487,
        "Language": "NL"
    },
    {
        "Postal_Code": 9050,
        "Name": "Ledeberg (Gent)",
        "Lon": 3.7412237,
        "Lat": 51.0371743,
        "Language": "NL"
    },
    {
        "Postal_Code": 9630,
        "Name": "Dikkele",
        "Lon": 3.7421149,
        "Lat": 50.9041388,
        "Language": "NL"
    },
    {
        "Postal_Code": 9820,
        "Name": "Merelbeke",
        "Lon": 3.743923,
        "Lat": 50.9925349,
        "Language": "NL"
    },
    {
        "Postal_Code": 9820,
        "Name": "Munte",
        "Lon": 3.7441552,
        "Lat": 50.9450049,
        "Language": "NL"
    },
    {
        "Postal_Code": 9940,
        "Name": "Ertvelde",
        "Lon": 3.7466865,
        "Lat": 51.1787632,
        "Language": "NL"
    },
    {
        "Postal_Code": 7890,
        "Name": "Wodecq",
        "Lon": 3.7467894,
        "Lat": 50.7184846,
        "Language": "NL"
    },
    {
        "Postal_Code": 9630,
        "Name": "Hundelgem",
        "Lon": 3.7483584,
        "Lat": 50.8895095,
        "Language": "NL"
    },
    {
        "Postal_Code": 9040,
        "Name": "Sint-Amandsberg (Gent)",
        "Lon": 3.7509905,
        "Lat": 51.0593304,
        "Language": "NL"
    },
    {
        "Postal_Code": 9960,
        "Name": "Assenede",
        "Lon": 3.7510157,
        "Lat": 51.2269806,
        "Language": "NL"
    },
    {
        "Postal_Code": 7802,
        "Name": "Ormeignies",
        "Lon": 3.7510985,
        "Lat": 50.5946299,
        "Language": "NL"
    },
    {
        "Postal_Code": 9630,
        "Name": "Roborst",
        "Lon": 3.7517319,
        "Lat": 50.8655452,
        "Language": "NL"
    },
    {
        "Postal_Code": 9660,
        "Name": "Nederbrakel",
        "Lon": 3.7521934,
        "Lat": 50.8030762,
        "Language": "NL"
    },
    {
        "Postal_Code": 7370,
        "Name": "Elouges",
        "Lon": 3.7522644,
        "Lat": 50.4025947,
        "Language": "NL"
    },
    {
        "Postal_Code": 7370,
        "Name": "Wih?ies",
        "Lon": 3.7525313,
        "Lat": 50.385473,
        "Language": "NL"
    },
    {
        "Postal_Code": 9630,
        "Name": "Rozebeke",
        "Lon": 3.7527652,
        "Lat": 50.8496528,
        "Language": "NL"
    },
    {
        "Postal_Code": 9820,
        "Name": "Bottelare",
        "Lon": 3.7537909,
        "Lat": 50.9631988,
        "Language": "NL"
    },
    {
        "Postal_Code": 7950,
        "Name": "Huissignies",
        "Lon": 3.7541,
        "Lat": 50.56482,
        "Language": "NL"
    },
    {
        "Postal_Code": 7950,
        "Name": "Grosage",
        "Lon": 3.75643,
        "Lat": 50.54469,
        "Language": "NL"
    },
    {
        "Postal_Code": 9660,
        "Name": "Opbrakel",
        "Lon": 3.7569851,
        "Lat": 50.7970364,
        "Language": "NL"
    },
    {
        "Postal_Code": 7801,
        "Name": "Irchonwelz",
        "Lon": 3.7590505,
        "Lat": 50.6179756,
        "Language": "NL"
    },
    {
        "Postal_Code": 7804,
        "Name": "Ostiches",
        "Lon": 3.7590705,
        "Lat": 50.678456,
        "Language": "NL"
    },
    {
        "Postal_Code": 9660,
        "Name": "Michelbeke",
        "Lon": 3.7629436,
        "Lat": 50.8334231,
        "Language": "NL"
    },
    {
        "Postal_Code": 9660,
        "Name": "Brakel",
        "Lon": 3.76382,
        "Lat": 50.80276,
        "Language": "NL"
    },
    {
        "Postal_Code": 9050,
        "Name": "Gentbrugge",
        "Lon": 3.7640148,
        "Lat": 51.0342951,
        "Language": "NL"
    },
    {
        "Postal_Code": 9041,
        "Name": "Oostakker",
        "Lon": 3.7642304,
        "Lat": 51.099713,
        "Language": "NL"
    },
    {
        "Postal_Code": 7350,
        "Name": "Hainin",
        "Lon": 3.7656597,
        "Lat": 50.4306618,
        "Language": "NL"
    },
    {
        "Postal_Code": 7334,
        "Name": "Hautrage",
        "Lon": 3.7659709,
        "Lat": 50.4792056,
        "Language": "NL"
    },
    {
        "Postal_Code": 7803,
        "Name": "Bouvignies",
        "Lon": 3.7664662,
        "Lat": 50.6467287,
        "Language": "NL"
    },
    {
        "Postal_Code": 7950,
        "Name": "Ladeuze",
        "Lon": 3.76861,
        "Lat": 50.56447,
        "Language": "NL"
    },
    {
        "Postal_Code": 7387,
        "Name": "Fayt-le-Franc",
        "Lon": 3.77132,
        "Lat": 50.3581,
        "Language": "NL"
    },
    {
        "Postal_Code": 9820,
        "Name": "Lemberge",
        "Lon": 3.7729677,
        "Lat": 50.9781227,
        "Language": "NL"
    },
    {
        "Postal_Code": 7951,
        "Name": "Tongre-Notre-Dame",
        "Lon": 3.7755504,
        "Lat": 50.5814329,
        "Language": "NL"
    },
    {
        "Postal_Code": 7387,
        "Name": "Athis",
        "Lon": 3.77806,
        "Lat": 50.36563,
        "Language": "NL"
    },
    {
        "Postal_Code": 9860,
        "Name": "Moortsele",
        "Lon": 3.779462,
        "Lat": 50.9590134,
        "Language": "NL"
    },
    {
        "Postal_Code": 7862,
        "Name": "Ogy",
        "Lon": 3.7806795,
        "Lat": 50.7207024,
        "Language": "NL"
    },
    {
        "Postal_Code": 9620,
        "Name": "Velzeke-Ruddershove",
        "Lon": 3.7808616,
        "Lat": 50.8856442,
        "Language": "NL"
    },
    {
        "Postal_Code": 9042,
        "Name": "Desteldonk",
        "Lon": 3.7825691,
        "Lat": 51.1220868,
        "Language": "NL"
    },
    {
        "Postal_Code": 7370,
        "Name": "Dour",
        "Lon": 3.7827922,
        "Lat": 50.4000125,
        "Language": "NL"
    },
    {
        "Postal_Code": 7804,
        "Name": "Rebaix",
        "Lon": 3.7835209,
        "Lat": 50.6604453,
        "Language": "NL"
    },
    {
        "Postal_Code": 9860,
        "Name": "Scheldewindeke",
        "Lon": 3.7855184,
        "Lat": 50.9383982,
        "Language": "NL"
    },
    {
        "Postal_Code": 9620,
        "Name": "Sint-Goriks-Oudenhove",
        "Lon": 3.7860345,
        "Lat": 50.853376,
        "Language": "NL"
    },
    {
        "Postal_Code": 9620,
        "Name": "Strijpen",
        "Lon": 3.7876333,
        "Lat": 50.8680225,
        "Language": "NL"
    },
    {
        "Postal_Code": 7800,
        "Name": "Ath",
        "Lon": 3.7882733,
        "Lat": 50.6335009,
        "Language": "NL"
    },
    {
        "Postal_Code": 7950,
        "Name": "Tongre-Saint-Martin",
        "Lon": 3.78884,
        "Lat": 50.58693,
        "Language": "NL"
    },
    {
        "Postal_Code": 7332,
        "Name": "Sirault",
        "Lon": 3.7899285,
        "Lat": 50.5041746,
        "Language": "NL"
    },
    {
        "Postal_Code": 7334,
        "Name": "Villerot",
        "Lon": 3.7905933,
        "Lat": 50.4865886,
        "Language": "NL"
    },
    {
        "Postal_Code": 9860,
        "Name": "Landskouter",
        "Lon": 3.7928735,
        "Lat": 50.9683883,
        "Language": "NL"
    },
    {
        "Postal_Code": 7387,
        "Name": "Erquennes",
        "Lon": 3.79349,
        "Lat": 50.35941,
        "Language": "NL"
    },
    {
        "Postal_Code": 9860,
        "Name": "Balegem",
        "Lon": 3.7934984,
        "Lat": 50.9204927,
        "Language": "NL"
    },
    {
        "Postal_Code": 7332,
        "Name": "Neufmaison",
        "Lon": 3.7936731,
        "Lat": 50.5293542,
        "Language": "NL"
    },
    {
        "Postal_Code": 9620,
        "Name": "Sint-Maria-Oudenhove (Zottegem)",
        "Lon": 3.7961149,
        "Lat": 50.8332892,
        "Language": "NL"
    },
    {
        "Postal_Code": 7300,
        "Name": "Boussu",
        "Lon": 3.7969506,
        "Lat": 50.425877,
        "Language": "NL"
    },
    {
        "Postal_Code": 9090,
        "Name": "Gontrode",
        "Lon": 3.7972911,
        "Lat": 50.9834948,
        "Language": "NL"
    },
    {
        "Postal_Code": 9661,
        "Name": "Parike",
        "Lon": 3.7979447,
        "Lat": 50.7848195,
        "Language": "NL"
    },
    {
        "Postal_Code": 7861,
        "Name": "Wannebecq",
        "Lon": 3.7997435,
        "Lat": 50.6944009,
        "Language": "NL"
    },
    {
        "Postal_Code": 9070,
        "Name": "Destelbergen",
        "Lon": 3.800096,
        "Lat": 51.054075,
        "Language": "NL"
    },
    {
        "Postal_Code": 9090,
        "Name": "Melle",
        "Lon": 3.8003144,
        "Lat": 51.0036716,
        "Language": "NL"
    },
    {
        "Postal_Code": 9070,
        "Name": "Heusden (O.-Vl.)",
        "Lon": 3.80398,
        "Lat": 51.02735,
        "Language": "NL"
    },
    {
        "Postal_Code": 7810,
        "Name": "Maffle",
        "Lon": 3.8057979,
        "Lat": 50.6169973,
        "Language": "NL"
    },
    {
        "Postal_Code": 7370,
        "Name": "Blaugies",
        "Lon": 3.8058371,
        "Lat": 50.372016,
        "Language": "NL"
    },
    {
        "Postal_Code": 7800,
        "Name": "Lanquesaint",
        "Lon": 3.8065319,
        "Lat": 50.6532856,
        "Language": "NL"
    },
    {
        "Postal_Code": 7950,
        "Name": "Chi?res",
        "Lon": 3.806936,
        "Lat": 50.583986,
        "Language": "NL"
    },
    {
        "Postal_Code": 9660,
        "Name": "Everbeek",
        "Lon": 3.8082788,
        "Lat": 50.7629802,
        "Language": "NL"
    },
    {
        "Postal_Code": 9620,
        "Name": "Elene",
        "Lon": 3.8102911,
        "Lat": 50.890414,
        "Language": "NL"
    },
    {
        "Postal_Code": 7863,
        "Name": "Ghoy",
        "Lon": 3.8103491,
        "Lat": 50.7298753,
        "Language": "NL"
    },
    {
        "Postal_Code": 9620,
        "Name": "Zottegem",
        "Lon": 3.8107094,
        "Lat": 50.8695474,
        "Language": "NL"
    },
    {
        "Postal_Code": 7333,
        "Name": "Tertre",
        "Lon": 3.8118542,
        "Lat": 50.4668162,
        "Language": "NL"
    },
    {
        "Postal_Code": 9060,
        "Name": "Zelzate",
        "Lon": 3.8124066,
        "Lat": 51.1982678,
        "Language": "NL"
    },
    {
        "Postal_Code": 9860,
        "Name": "Gijzenzele",
        "Lon": 3.8154698,
        "Lat": 50.9705888,
        "Language": "NL"
    },
    {
        "Postal_Code": 9860,
        "Name": "Oosterzele",
        "Lon": 3.815505,
        "Lat": 50.9467656,
        "Language": "NL"
    },
    {
        "Postal_Code": 9042,
        "Name": "Sint-Kruis-Winkel",
        "Lon": 3.8158001,
        "Lat": 51.1558401,
        "Language": "NL"
    },
    {
        "Postal_Code": 7811,
        "Name": "Arbre (Ht.)",
        "Lon": 3.8165211,
        "Lat": 50.6124045,
        "Language": "NL"
    },
    {
        "Postal_Code": 7861,
        "Name": "Papignies",
        "Lon": 3.8165855,
        "Lat": 50.6863766,
        "Language": "NL"
    },
    {
        "Postal_Code": 7822,
        "Name": "Isi?es",
        "Lon": 3.8176928,
        "Lat": 50.665394,
        "Language": "NL"
    },
    {
        "Postal_Code": 7330,
        "Name": "Saint-Ghislain",
        "Lon": 3.8183635,
        "Lat": 50.4490864,
        "Language": "NL"
    },
    {
        "Postal_Code": 9620,
        "Name": "Erwetegem",
        "Lon": 3.8187486,
        "Lat": 50.8534264,
        "Language": "NL"
    },
    {
        "Postal_Code": 9042,
        "Name": "Mendonk",
        "Lon": 3.8193015,
        "Lat": 51.1447934,
        "Language": "NL"
    },
    {
        "Postal_Code": 7340,
        "Name": "Warquignies",
        "Lon": 3.8216781,
        "Lat": 50.4010549,
        "Language": "NL"
    },
    {
        "Postal_Code": 9572,
        "Name": "Sint-Martens-Lierde",
        "Lon": 3.8227044,
        "Lat": 50.8046682,
        "Language": "NL"
    },
    {
        "Postal_Code": 7301,
        "Name": "Hornu",
        "Lon": 3.82627,
        "Lat": 50.43634,
        "Language": "NL"
    },
    {
        "Postal_Code": 9500,
        "Name": "Zarlardinge",
        "Lon": 3.8286395,
        "Lat": 50.7621167,
        "Language": "NL"
    },
    {
        "Postal_Code": 9620,
        "Name": "Godveerdegem",
        "Lon": 3.8299361,
        "Lat": 50.862263,
        "Language": "NL"
    },
    {
        "Postal_Code": 9620,
        "Name": "Leeuwergem",
        "Lon": 3.8302773,
        "Lat": 50.8881102,
        "Language": "NL"
    },
    {
        "Postal_Code": 9620,
        "Name": "Grotenberge",
        "Lon": 3.8334131,
        "Lat": 50.8730328,
        "Language": "NL"
    },
    {
        "Postal_Code": 7860,
        "Name": "Lessines",
        "Lon": 3.8348594,
        "Lat": 50.7047124,
        "Language": "NL"
    },
    {
        "Postal_Code": 9620,
        "Name": "Oombergen (Zottegem)",
        "Lon": 3.8370058,
        "Lat": 50.8990217,
        "Language": "NL"
    },
    {
        "Postal_Code": 7331,
        "Name": "Baudour",
        "Lon": 3.8377399,
        "Lat": 50.4832756,
        "Language": "NL"
    },
    {
        "Postal_Code": 9080,
        "Name": "Lochristi",
        "Lon": 3.8378336,
        "Lat": 51.0974848,
        "Language": "NL"
    },
    {
        "Postal_Code": 9570,
        "Name": "Lierde",
        "Lon": 3.8381658,
        "Lat": 50.8190695,
        "Language": "NL"
    },
    {
        "Postal_Code": 7340,
        "Name": "P?urages",
        "Lon": 3.8383261,
        "Lat": 50.4048263,
        "Language": "NL"
    },
    {
        "Postal_Code": 7941,
        "Name": "Attre",
        "Lon": 3.8384917,
        "Lat": 50.6067064,
        "Language": "NL"
    },
    {
        "Postal_Code": 9570,
        "Name": "Sint-Maria-Lierde",
        "Lon": 3.8390631,
        "Lat": 50.8183551,
        "Language": "NL"
    },
    {
        "Postal_Code": 9570,
        "Name": "Deftinge",
        "Lon": 3.8396638,
        "Lat": 50.7873351,
        "Language": "NL"
    },
    {
        "Postal_Code": 9500,
        "Name": "Goeferdinge",
        "Lon": 3.8414944,
        "Lat": 50.7673697,
        "Language": "NL"
    },
    {
        "Postal_Code": 7340,
        "Name": "Wasmes",
        "Lon": 3.8449946,
        "Lat": 50.4219636,
        "Language": "NL"
    },
    {
        "Postal_Code": 7390,
        "Name": "Wasmuel",
        "Lon": 3.8453838,
        "Lat": 50.4456324,
        "Language": "NL"
    },
    {
        "Postal_Code": 7822,
        "Name": "Meslin-l'Ev?ue",
        "Lon": 3.8474277,
        "Lat": 50.649351,
        "Language": "NL"
    },
    {
        "Postal_Code": 7340,
        "Name": "Colfontaine",
        "Lon": 3.85,
        "Lat": 50.4,
        "Language": "NL"
    },
    {
        "Postal_Code": 7942,
        "Name": "M?ergnies-lez-Lens",
        "Lon": 3.8525209,
        "Lat": 50.60734,
        "Language": "NL"
    },
    {
        "Postal_Code": 7870,
        "Name": "Bauffe",
        "Lon": 3.8531354,
        "Lat": 50.56992,
        "Language": "NL"
    },
    {
        "Postal_Code": 9270,
        "Name": "Laarne",
        "Lon": 3.8535642,
        "Lat": 51.0304277,
        "Language": "NL"
    },
    {
        "Postal_Code": 7864,
        "Name": "Deux-Acren",
        "Lon": 3.8540312,
        "Lat": 50.7289132,
        "Language": "NL"
    },
    {
        "Postal_Code": 9550,
        "Name": "Hillegem",
        "Lon": 3.8541872,
        "Lat": 50.8955518,
        "Language": "NL"
    },
    {
        "Postal_Code": 9520,
        "Name": "Sint-Lievens-Houtem",
        "Lon": 3.8544167,
        "Lat": 50.9206626,
        "Language": "NL"
    },
    {
        "Postal_Code": 7940,
        "Name": "Brugelette",
        "Lon": 3.8545291,
        "Lat": 50.5991751,
        "Language": "NL"
    },
    {
        "Postal_Code": 9571,
        "Name": "Hemelveerdegem",
        "Lon": 3.8569442,
        "Lat": 50.8069634,
        "Language": "NL"
    },
    {
        "Postal_Code": 7050,
        "Name": "Herchies",
        "Lon": 3.8576244,
        "Lat": 50.5275483,
        "Language": "NL"
    },
    {
        "Postal_Code": 7866,
        "Name": "Ollignies",
        "Lon": 3.8591532,
        "Lat": 50.6846628,
        "Language": "NL"
    },
    {
        "Postal_Code": 9185,
        "Name": "Wachtebeke",
        "Lon": 3.86055,
        "Lat": 51.17095,
        "Language": "NL"
    },
    {
        "Postal_Code": 9230,
        "Name": "Westrem",
        "Lon": 3.8613947,
        "Lat": 50.969757,
        "Language": "NL"
    },
    {
        "Postal_Code": 9080,
        "Name": "Zaffelare",
        "Lon": 3.8618077,
        "Lat": 51.1324891,
        "Language": "NL"
    },
    {
        "Postal_Code": 9500,
        "Name": "Nederboelare",
        "Lon": 3.8630757,
        "Lat": 50.7707473,
        "Language": "NL"
    },
    {
        "Postal_Code": 9500,
        "Name": "Overboelare",
        "Lon": 3.8630955,
        "Lat": 50.7622737,
        "Language": "NL"
    },
    {
        "Postal_Code": 7390,
        "Name": "Quaregnon",
        "Lon": 3.8645777,
        "Lat": 50.4443909,
        "Language": "NL"
    },
    {
        "Postal_Code": 9520,
        "Name": "Bavegem",
        "Lon": 3.8657862,
        "Lat": 50.9442706,
        "Language": "NL"
    },
    {
        "Postal_Code": 9500,
        "Name": "Geraardsbergen",
        "Lon": 3.8723864,
        "Lat": 50.7704243,
        "Language": "NL"
    },
    {
        "Postal_Code": 9230,
        "Name": "Massemen",
        "Lon": 3.8734909,
        "Lat": 50.9808891,
        "Language": "NL"
    },
    {
        "Postal_Code": 7080,
        "Name": "La Bouverie",
        "Lon": 3.8747222,
        "Lat": 50.4055556,
        "Language": "NL"
    },
    {
        "Postal_Code": 9550,
        "Name": "Steenhuize-Wijnhuize",
        "Lon": 3.8757417,
        "Lat": 50.8457249,
        "Language": "NL"
    },
    {
        "Postal_Code": 7080,
        "Name": "Sars-la-Bruy?e",
        "Lon": 3.87611,
        "Lat": 50.37247,
        "Language": "NL"
    },
    {
        "Postal_Code": 7822,
        "Name": "Ghislenghien",
        "Lon": 3.8774062,
        "Lat": 50.6565066,
        "Language": "NL"
    },
    {
        "Postal_Code": 7940,
        "Name": "Cambron-Casteau",
        "Lon": 3.8801355,
        "Lat": 50.5890218,
        "Language": "NL"
    },
    {
        "Postal_Code": 9080,
        "Name": "Beervelde",
        "Lon": 3.8805757,
        "Lat": 51.0800983,
        "Language": "NL"
    },
    {
        "Postal_Code": 9521,
        "Name": "Letterhoutem",
        "Lon": 3.8820403,
        "Lat": 50.9263891,
        "Language": "NL"
    },
    {
        "Postal_Code": 7050,
        "Name": "Erbaut",
        "Lon": 3.8841662,
        "Lat": 50.5329492,
        "Language": "NL"
    },
    {
        "Postal_Code": 9550,
        "Name": "Sint-Lievens-Esse",
        "Lon": 3.8855951,
        "Lat": 50.8570756,
        "Language": "NL"
    },
    {
        "Postal_Code": 7080,
        "Name": "Eugies (Frameries)",
        "Lon": 3.88777,
        "Lat": 50.39021,
        "Language": "NL"
    },
    {
        "Postal_Code": 7823,
        "Name": "Gibecq",
        "Lon": 3.887925,
        "Lat": 50.6383168,
        "Language": "NL"
    },
    {
        "Postal_Code": 7866,
        "Name": "Bois-de-Lessines",
        "Lon": 3.8881698,
        "Lat": 50.6968993,
        "Language": "NL"
    },
    {
        "Postal_Code": 7830,
        "Name": "Hellebecq",
        "Lon": 3.8882654,
        "Lat": 50.6633699,
        "Language": "NL"
    },